ID,Paikannimi,Paikanlaji,"Kartan numero","Kerääjän karttanumero",X,Y,Pistesij.viite,Pitäjä,Kerääjä,Vuosi,Aakkonen,Kuvatiedosto,Jatko,PEX,"Muut nimet","Todellinen pitäjä",KarttaID,X_euref,Y_euref,HuomioKotus,Kokoelma,Kuvalinkki,RerSer,Emolippu,wgs84_long,wgs84_lat
1,Aadaminala,pelto,114211,,18,58,2,Ahlainen,"Miikkulainen, Raija",1986,A,00000001_F.jpg,,,,,1483,218324.642718013,6856056.453088261,,KotusNA1,"\\tiedostot.ds.kotus.fi\digiwork2\nadigi\GRANON LOPULLISET DIGITOINNIT\0001_AHLAINEN\JPG\Ahlainen\A\kotus-201214_0001_AHLAINEN_00000001_F.jpg",1,,21.664435760413,61.733505875359
2,"Aallon Ryssä",H,,,,,,Ahlainen,"Peltola, Satu-Liisa",1966,A,00000002_F.jpg,,,,,0,-1,-1,,KotusNA1,"\\tiedostot.ds.kotus.fi\digiwork2\nadigi\GRANON LOPULLISET DIGITOINNIT\0001_AHLAINEN\JPG\Ahlainen\A\kotus-201214_0001_AHLAINEN_00000002_F.jpg",2,,-1,-1
3,Aalto,tila,114211,,16,55,,Ahlainen,"Miikkulainen, Raija",1986,A,00000003_F.jpg,,,,,1483,216443.6201137164,6852624.66448322,,KotusNA1,"\\tiedostot.ds.kotus.fi\digiwork2\nadigi\GRANON LOPULLISET DIGITOINNIT\0001_AHLAINEN\JPG\Ahlainen\A\kotus-201214_0001_AHLAINEN_00000003_F.jpg",3,,21.634338115408,61.701446517081
5,Aalto,,114211,,15,55,,Ahlainen,"Miikkulainen, Raija",1986,A,00000005_F.jpg,,,,,1483,215444.0214011311,6852624.660022502,,KotusNA1,"\\tiedostot.ds.kotus.fi\digiwork2\nadigi\GRANON LOPULLISET DIGITOINNIT\0001_AHLAINEN\JPG\Ahlainen\A\kotus-201214_0001_AHLAINEN_00000005_F.jpg",4,,21.615521581013,61.700706355449
6,Aaltonen,tila,114208+114205,,09,55,4,Ahlainen,"Miikkulainen, Raija",1986,A,00000006_F.jpg,,,,,1482,209055.7818510942,6852740.875960149,,KotusNA1,"\\tiedostot.ds.kotus.fi\digiwork2\nadigi\GRANON LOPULLISET DIGITOINNIT\0001_AHLAINEN\JPG\Ahlainen\A\kotus-201214_0001_AHLAINEN_00000006_F.jpg",5,,21.495107763635,61.696953962072
7,Aaltonen,,V:3/11,I,7,I,,Ahlainen,"Vasama, Marjatta",1963,A,00000007_F.jpg,,,,,1457,213742.7672867721,6855157.770996459,,KotusNA1,"\\tiedostot.ds.kotus.fi\digiwork2\nadigi\GRANON LOPULLISET DIGITOINNIT\0001_AHLAINEN\JPG\Ahlainen\A\kotus-201214_0001_AHLAINEN_00000007_F.jpg",6,,21.579515659783,61.722078779841
8,Aaltonen,asumus,114207+114204,,08,48,7,Ahlainen,"Miikkulainen, Raija",1974,A,00000008_F.jpg,,,,,1477,208880.8775984996,6846055.996039545,,KotusNA1,"\\tiedostot.ds.kotus.fi\digiwork2\nadigi\GRANON LOPULLISET DIGITOINNIT\0001_AHLAINEN\JPG\Ahlainen\A\kotus-201214_0001_AHLAINEN_00000008_F.jpg",7,,21.502473257851,61.637087670127
9,Aaltonen,asumus,114207+114204,,07,49,,Ahlainen,"Miikkulainen, Raija",1974,A,00000009_F.jpg,,,,,1477,207447.258412566,6846627.031871431,,KotusNA1,"\\tiedostot.ds.kotus.fi\digiwork2\nadigi\GRANON LOPULLISET DIGITOINNIT\0001_AHLAINEN\JPG\Ahlainen\A\kotus-201214_0001_AHLAINEN_00000009_F.jpg",8,,21.474636120374,61.64110248045
10,Aaltonen,asunto,V:3/16,II,1,C,,Ahlainen,"Vasama, Marjatta",1963,A,00000010_F.jpg,,,,,1458,207217.787467629,6850658.582591951,,KotusNA1,"\\tiedostot.ds.kotus.fi\digiwork2\nadigi\GRANON LOPULLISET DIGITOINNIT\0001_AHLAINEN\JPG\Ahlainen\A\kotus-201214_0001_AHLAINEN_00000010_F.jpg",9,,21.463866264796,61.676950545053
11,Aaltonen,talo,V:3/16,II,8,F,,Ahlainen,"Vasama, Marjatta",1963,A,00000011_F.jpg,,,,,1458,214057.2016722001,6847049.546225006,,KotusNA1,"\\tiedostot.ds.kotus.fi\digiwork2\nadigi\GRANON LOPULLISET DIGITOINNIT\0001_AHLAINEN\JPG\Ahlainen\A\kotus-201214_0001_AHLAINEN_00000011_F.jpg",10,,21.598152500195,61.649850115218
12,Aapelinkorpi,pellot,,1,"17,18",49,,Ahlainen,"Norrbacka, Hilkka",1977,A,00000012_F.jpg,,,,,1478,217443.2456264795,6846627.076729745,,KotusNA1,"\\tiedostot.ds.kotus.fi\digiwork2\nadigi\GRANON LOPULLISET DIGITOINNIT\0001_AHLAINEN\JPG\Ahlainen\A\kotus-201214_0001_AHLAINEN_00000012_F.jpg",11,,21.662442235694,61.648577629637
13,Aaponniittu,niitty,,1,2,E,4,Ahlainen,"Lenko, Marja",1967,A,00000013_F.jpg,,,,,1471,218334.997073872,6847983.31615286,,KotusNA1,"\\tiedostot.ds.kotus.fi\digiwork2\nadigi\GRANON LOPULLISET DIGITOINNIT\0001_AHLAINEN\JPG\Ahlainen\A\kotus-201214_0001_AHLAINEN_00000013_F.jpg",12,,21.677111487603,61.661354470385
14,Aaprahaminkari,,114211,,14,58,28,Ahlainen,"Miikkulainen, Raija",1986,A,00000014_F.jpg,,,,,1483,214046.3278649143,6855244.134258522,,KotusNA1,"\\tiedostot.ds.kotus.fi\digiwork2\nadigi\GRANON LOPULLISET DIGITOINNIT\0001_AHLAINEN\JPG\Ahlainen\A\kotus-201214_0001_AHLAINEN_00000014_F.jpg",13,,21.585097623531,61.723077177726
15,Aarikka,tila,114211,,18,53,6,Ahlainen,"Miikkulainen, Raija",1986,A,00000015_F.jpg,,,,,1483,218494.0999511061,6850895.116165303,,KotusNA1,"\\tiedostot.ds.kotus.fi\digiwork2\nadigi\GRANON LOPULLISET DIGITOINNIT\0001_AHLAINEN\JPG\Ahlainen\A\kotus-201214_0001_AHLAINEN_00000015_F.jpg",14,,21.675611595609,61.687497585272
17,Aarnela,maa,V:3/11,I,6,K,9,Ahlainen,"Vasama, Marjatta",1963,A,00000017_F.jpg,,,,,1457,212772.4304587996,6853082.368119583,,KotusNA1,"\\tiedostot.ds.kotus.fi\digiwork2\nadigi\GRANON LOPULLISET DIGITOINNIT\0001_AHLAINEN\JPG\Ahlainen\A\kotus-201214_0001_AHLAINEN_00000017_F.jpg",15,,21.564514661574,61.702805961076
18,Aarunala,pelto,114211,,17,58,9,Ahlainen,"Miikkulainen, Raija",1986,A,00000018_F.jpg,,,,,1483,217093.4840334553,6855169.588459482,,KotusNA1,"\\tiedostot.ds.kotus.fi\digiwork2\nadigi\GRANON LOPULLISET DIGITOINNIT\0001_AHLAINEN\JPG\Ahlainen\A\kotus-201214_0001_AHLAINEN_00000018_F.jpg",16,,21.642615501163,61.72467222302
20,Abessinia,pelto,114211,,16,58,"3,4",Ahlainen,"Miikkulainen, Raija",1986,A,00000020_F.jpg,,,,,1483,216400.2848243165,6855307.152379695,,KotusNA1,"\\tiedostot.ds.kotus.fi\digiwork2\nadigi\GRANON LOPULLISET DIGITOINNIT\0001_AHLAINEN\JPG\Ahlainen\A\kotus-201214_0001_AHLAINEN_00000020_F.jpg",17,,21.629341989275,61.725389397466
21,Abrodinnokka,niemeke,,1,7,I,2,Ahlainen,"Peltola, Satu-Liisa",1966,A,00000021_F.jpg,,,,,1466,212650.1966203394,6844539.556068304,,KotusNA1,"\\tiedostot.ds.kotus.fi\digiwork2\nadigi\GRANON LOPULLISET DIGITOINNIT\0001_AHLAINEN\JPG\Ahlainen\A\kotus-201214_0001_AHLAINEN_00000021_F.jpg",18,,21.575653923705,61.626369799607
22,ahde,A,,,,,,Ahlainen,"Miikkulainen, Raija",1986,A,00000022_F.jpg,,,,,0,-1,-1,,KotusNA1,"\\tiedostot.ds.kotus.fi\digiwork2\nadigi\GRANON LOPULLISET DIGITOINNIT\0001_AHLAINEN\JPG\Ahlainen\A\kotus-201214_0001_AHLAINEN_00000022_F.jpg",19,,-1,-1
23,ahde,A,,,,,,Ahlainen,"Norrbacka, Hilkka",1977,A,00000023_F.jpg,,,,,0,-1,-1,,KotusNA1,"\\tiedostot.ds.kotus.fi\digiwork2\nadigi\GRANON LOPULLISET DIGITOINNIT\0001_AHLAINEN\JPG\Ahlainen\A\kotus-201214_0001_AHLAINEN_00000023_F.jpg",20,,-1,-1
24,ahde,A,,,,,,Ahlainen,"Lenko, Marja",1967,A,00000024_F.jpg,,,,,0,-1,-1,,KotusNA1,"\\tiedostot.ds.kotus.fi\digiwork2\nadigi\GRANON LOPULLISET DIGITOINNIT\0001_AHLAINEN\JPG\Ahlainen\A\kotus-201214_0001_AHLAINEN_00000024_F.jpg",21,,-1,-1
25,Ahlainen,kaupunginosa,,,,,,Ahlainen,"Norrbacka, Hilkka",1977,A,00000025_F.jpg,,,,,0,-1,-1,,KotusNA1,"\\tiedostot.ds.kotus.fi\digiwork2\nadigi\GRANON LOPULLISET DIGITOINNIT\0001_AHLAINEN\JPG\Ahlainen\A\kotus-201214_0001_AHLAINEN_00000025_F.jpg",22,,-1,-1
26,Ahlainen,pitäjä,,,,,,Ahlainen,"Kleemola, Tarja",1969,A,00000026_F.jpg,,,,,0,-1,-1,,KotusNA1,"\\tiedostot.ds.kotus.fi\digiwork2\nadigi\GRANON LOPULLISET DIGITOINNIT\0001_AHLAINEN\JPG\Ahlainen\A\kotus-201214_0001_AHLAINEN_00000026_F.jpg",23,,-1,-1
27,Ahlainen,pitäjä,,,,,,Ahlainen,"Kleemola, Tarja",1969,A,00000027_F.jpg,J,,,,0,-1,-1,,KotusNA1,"\\tiedostot.ds.kotus.fi\digiwork2\nadigi\GRANON LOPULLISET DIGITOINNIT\0001_AHLAINEN\JPG\Ahlainen\A\kotus-201214_0001_AHLAINEN_00000027_F.jpg",24,23,-1,-1
28,Ahlainen,pitäjä,,,,,,Ahlainen,"Mäenpää, Marja-Liisa",1967,A,00000028_F.jpg,,,,,0,-1,-1,,KotusNA1,"\\tiedostot.ds.kotus.fi\digiwork2\nadigi\GRANON LOPULLISET DIGITOINNIT\0001_AHLAINEN\JPG\Ahlainen\A\kotus-201214_0001_AHLAINEN_00000028_F.jpg",25,,-1,-1
29,Ahlainen,M,,,,,,Ahlainen,"Sarmila, Hanna",1960,A,00000029_F.jpg,,,,,0,-1,-1,,KotusNA1,"\\tiedostot.ds.kotus.fi\digiwork2\nadigi\GRANON LOPULLISET DIGITOINNIT\0001_AHLAINEN\JPG\Ahlainen\A\kotus-201214_0001_AHLAINEN_00000029_F.jpg",26,,-1,-1
30,Ahlainen,pitäjä,,,,,,Ahlainen,"Vasama, Marjatta",1962,A,00000030_F.jpg,,,,,0,-1,-1,,KotusNA1,"\\tiedostot.ds.kotus.fi\digiwork2\nadigi\GRANON LOPULLISET DIGITOINNIT\0001_AHLAINEN\JPG\Ahlainen\A\kotus-201214_0001_AHLAINEN_00000030_F.jpg",27,,-1,-1
31,Ahlainen,pitäjä,,,,,,Ahlainen,"Lenko, Marja",1967,A,00000031_F.jpg,,,,,0,-1,-1,,KotusNA1,"\\tiedostot.ds.kotus.fi\digiwork2\nadigi\GRANON LOPULLISET DIGITOINNIT\0001_AHLAINEN\JPG\Ahlainen\A\kotus-201214_0001_AHLAINEN_00000031_F.jpg",28,,-1,-1
32,Ahlainen,M,,,,,,Ahlainen,"Sarmila, Hanna",1960,A,00000032_F.jpg,,,,,0,-1,-1,,KotusNA1,"\\tiedostot.ds.kotus.fi\digiwork2\nadigi\GRANON LOPULLISET DIGITOINNIT\0001_AHLAINEN\JPG\Ahlainen\A\kotus-201214_0001_AHLAINEN_00000032_F.jpg",29,,-1,-1
34,Ahlainen,pitäjä,,,,,,Ahlainen,"Peltola, Satu-Liisa",1966,A,00000034_F.jpg,,,,,0,-1,-1,,KotusNA1,"\\tiedostot.ds.kotus.fi\digiwork2\nadigi\GRANON LOPULLISET DIGITOINNIT\0001_AHLAINEN\JPG\Ahlainen\A\kotus-201214_0001_AHLAINEN_00000034_F.jpg",30,,-1,-1
35,Ahlaistenjoki,joki,,1,21,46,,Ahlainen,"Norrbacka, Hilkka",1977,A,00000035_F.jpg,,,,,1478,221416.9835238695,6843636.405938022,,KotusNA1,"\\tiedostot.ds.kotus.fi\digiwork2\nadigi\GRANON LOPULLISET DIGITOINNIT\0001_AHLAINEN\JPG\Ahlainen\A\kotus-201214_0001_AHLAINEN_00000035_F.jpg",31,,21.741682842833,61.624743330206
36,Ahlaistenjoki,joki,,,,,,Ahlainen,"Peltola, Satu-Liisa",1966,A,00000036_F.jpg,,,,,0,-1,-1,,KotusNA1,"\\tiedostot.ds.kotus.fi\digiwork2\nadigi\GRANON LOPULLISET DIGITOINNIT\0001_AHLAINEN\JPG\Ahlainen\A\kotus-201214_0001_AHLAINEN_00000036_F.jpg",32,,-1,-1
37,Ahlaistenjoki,joki,,,,,,Ahlainen,"Kleemola, Tarja",1969,A,00000037_F.jpg,,,,,0,-1,-1,,KotusNA1,"\\tiedostot.ds.kotus.fi\digiwork2\nadigi\GRANON LOPULLISET DIGITOINNIT\0001_AHLAINEN\JPG\Ahlainen\A\kotus-201214_0001_AHLAINEN_00000037_F.jpg",33,,-1,-1
38,Ahlaistenjoki,joki,,,,,,Ahlainen,"Vasama, Marjatta",1963,A,00000038_F.jpg,,,,,0,-1,-1,,KotusNA1,"\\tiedostot.ds.kotus.fi\digiwork2\nadigi\GRANON LOPULLISET DIGITOINNIT\0001_AHLAINEN\JPG\Ahlainen\A\kotus-201214_0001_AHLAINEN_00000038_F.jpg",34,,-1,-1
39,Ahlaistenjoki,joki,,,,,,Ahlainen,"Vasama, Marjatta",1963,A,00000039_F.jpg,J,,,,0,-1,-1,,KotusNA1,"\\tiedostot.ds.kotus.fi\digiwork2\nadigi\GRANON LOPULLISET DIGITOINNIT\0001_AHLAINEN\JPG\Ahlainen\A\kotus-201214_0001_AHLAINEN_00000039_F.jpg",35,34,-1,-1
40,Ahlgrenintontti,metsä,,1,1,E,11,Ahlainen,"Lenko, Marja",1967,A,00000040_F.jpg,,,,,1471,218081.7921816463,6847484.711695561,,KotusNA1,"\\tiedostot.ds.kotus.fi\digiwork2\nadigi\GRANON LOPULLISET DIGITOINNIT\0001_AHLAINEN\JPG\Ahlainen\A\kotus-201214_0001_AHLAINEN_00000040_F.jpg",36,,21.673120187504,61.656712146316
41,Aho,tila,114211,,16,56,,Ahlainen,"Miikkulainen, Raija",1986,A,00000041_F.jpg,,,,,1483,216443.6156588952,6853624.263191545,,KotusNA1,"\\tiedostot.ds.kotus.fi\digiwork2\nadigi\GRANON LOPULLISET DIGITOINNIT\0001_AHLAINEN\JPG\Ahlainen\A\kotus-201214_0001_AHLAINEN_00000041_F.jpg",37,,21.632781371409,61.710380534426
43,Aho,tila,114211,,16,56,,Ahlainen,"Miikkulainen, Raija",1986,A,00000043_F.jpg,,,,,1483,216443.6156588952,6853624.263191545,,KotusNA1,"\\tiedostot.ds.kotus.fi\digiwork2\nadigi\GRANON LOPULLISET DIGITOINNIT\0001_AHLAINEN\JPG\Ahlainen\A\kotus-201214_0001_AHLAINEN_00000043_F.jpg",38,,21.632781371409,61.710380534426
44,Ahola,tila,,1,9,G,6,Ahlainen,"Peltola, Satu-Liisa",1966,A,00000044_F.jpg,,,,,1466,214581.167912484,6846189.892866004,,KotusNA1,"\\tiedostot.ds.kotus.fi\digiwork2\nadigi\GRANON LOPULLISET DIGITOINNIT\0001_AHLAINEN\JPG\Ahlainen\A\kotus-201214_0001_AHLAINEN_00000044_F.jpg",39,,21.609340655076,61.642556461477
45,Ahteenalustapelto,pelto,,1,3,E,12,Ahlainen,"Lenko, Marja",1967,A,00000045_F.jpg,,,,,1471,219274.1343308813,6848003.297800763,,KotusNA1,"\\tiedostot.ds.kotus.fi\digiwork2\nadigi\GRANON LOPULLISET DIGITOINNIT\0001_AHLAINEN\JPG\Ahlainen\A\kotus-201214_0001_AHLAINEN_00000045_F.jpg",40,,21.694738449931,61.662220311888
46,Ahteenniittu,pelto,,1,7,H,4,Ahlainen,"Lenko, Marja",1967,A,00000046_F.jpg,,,,,1471,223404.0903268253,6844099.384154422,,KotusNA1,"\\tiedostot.ds.kotus.fi\digiwork2\nadigi\GRANON LOPULLISET DIGITOINNIT\0001_AHLAINEN\JPG\Ahlainen\A\kotus-201214_0001_AHLAINEN_00000046_F.jpg",41,,21.778305954801,61.630315591652
47,Ahteenniitty,pelto,114401,,23,47,9,Ahlainen,"Laine, Helena",1989,A,00000047_F.jpg,,,,,1485,223443.7894463696,6844381.78873496,,KotusNA1,"\\tiedostot.ds.kotus.fi\digiwork2\nadigi\GRANON LOPULLISET DIGITOINNIT\0001_AHLAINEN\JPG\Ahlainen\A\kotus-201214_0001_AHLAINEN_00000047_F.jpg",42,,21.778625146512,61.632868770562
48,Ahvenapaja,apaja,V:3/16,II,3,D,3,Ahlainen,"Vasama, Marjatta",1963,A,00000048_F.jpg,,,,,1458,209569.7336243016,6849016.013219579,,KotusNA1,"\\tiedostot.ds.kotus.fi\digiwork2\nadigi\GRANON LOPULLISET DIGITOINNIT\0001_AHLAINEN\JPG\Ahlainen\A\kotus-201214_0001_AHLAINEN_00000048_F.jpg",43,,21.510709213261,61.664058775672
49,Ahvenapaja,apaja,V:3/16,1,6,C,1,Ahlainen,"Kleemola, Tarja",1969,A,00000049_F.jpg,,,,,1476,211893.5490472875,6849962.626360787,,KotusNA1,"\\tiedostot.ds.kotus.fi\digiwork2\nadigi\GRANON LOPULLISET DIGITOINNIT\0001_AHLAINEN\JPG\Ahlainen\A\kotus-201214_0001_AHLAINEN_00000049_F.jpg",44,,21.552901351819,61.674267652898
50,Ahvenkarinnokka,niemeke,,1,9,I,9,Ahlainen,"Peltola, Satu-Liisa",1966,A,00000050_F.jpg,,,,,1466,215005.9815967557,6843924.863540296,,KotusNA1,"\\tiedostot.ds.kotus.fi\digiwork2\nadigi\GRANON LOPULLISET DIGITOINNIT\0001_AHLAINEN\JPG\Ahlainen\A\kotus-201214_0001_AHLAINEN_00000050_F.jpg",45,,21.620848162596,61.622627828984
51,Ahvenkivenranta,ranta,,1,8,G,25,Ahlainen,"Peltola, Satu-Liisa",1966,A,00000051_F.jpg,,,,,1466,213728.9659155509,6846083.045787841,,KotusNA1,"\\tiedostot.ds.kotus.fi\digiwork2\nadigi\GRANON LOPULLISET DIGITOINNIT\0001_AHLAINEN\JPG\Ahlainen\A\kotus-201214_0001_AHLAINEN_00000051_F.jpg",46,,21.593497010522,61.640968155489
52,Aidanjohdinpelto,pelto,V:3/11,I,5,K,1,Ahlainen,"Vasama, Marjatta",1962,A,00000052_F.jpg,,,,,1457,211510.6910519793,6853341.310790512,,KotusNA1,"\\tiedostot.ds.kotus.fi\digiwork2\nadigi\GRANON LOPULLISET DIGITOINNIT\0001_AHLAINEN\JPG\Ahlainen\A\kotus-201214_0001_AHLAINEN_00000052_F.jpg",47,,21.540355267441,61.704173180453
53,Aitaus,pelto,114211,,16,55,3,Ahlainen,"Miikkulainen, Raija",1986,A,00000053_F.jpg,,,,,1483,216240.4340080718,6852742.62270144,,KotusNA1,"\\tiedostot.ds.kotus.fi\digiwork2\nadigi\GRANON LOPULLISET DIGITOINNIT\0001_AHLAINEN\JPG\Ahlainen\A\kotus-201214_0001_AHLAINEN_00000053_F.jpg",48,,21.630329466949,61.702350542458
54,Aittapelto,pelto,114211,,14,56,,Ahlainen,"Miikkulainen, Raija",1986,A,00000054_F.jpg,,,,,1483,214444.41822878,6853624.254276858,,KotusNA1,"\\tiedostot.ds.kotus.fi\digiwork2\nadigi\GRANON LOPULLISET DIGITOINNIT\0001_AHLAINEN\JPG\Ahlainen\A\kotus-201214_0001_AHLAINEN_00000054_F.jpg",49,,21.595138548458,61.708897081593
55,Aittapelto,pelto,114211,,14,58,16,Ahlainen,"Miikkulainen, Raija",1986,A,00000055_F.jpg,,,,,1483,214482.8435532926,6855928.11130973,,KotusNA1,"\\tiedostot.ds.kotus.fi\digiwork2\nadigi\GRANON LOPULLISET DIGITOINNIT\0001_AHLAINEN\JPG\Ahlainen\A\kotus-201214_0001_AHLAINEN_00000055_F.jpg",50,,21.592245913318,61.729515279833
57,Aittapelto,pelto,114211,,18,58,10,Ahlainen,"Miikkulainen, Raija",1986,A,00000057_F.jpg,,,,,1483,218748.8621896772,6855692.94618649,,KotusNA1,"\\tiedostot.ds.kotus.fi\digiwork2\nadigi\GRANON LOPULLISET DIGITOINNIT\0001_AHLAINEN\JPG\Ahlainen\A\kotus-201214_0001_AHLAINEN_00000057_F.jpg",51,,21.672992892738,61.730568457283
58,Aksinpelto,pelto,114211,,13,57,32,Ahlainen,"Miikkulainen, Raija",1986,A,00000058_F.jpg,,,,,1483,213899.9260363056,6854935.576072165,,KotusNA1,"\\tiedostot.ds.kotus.fi\digiwork2\nadigi\GRANON LOPULLISET DIGITOINNIT\0001_AHLAINEN\JPG\Ahlainen\A\kotus-201214_0001_AHLAINEN_00000058_F.jpg",52,,21.582825351592,61.720210394377
59,Aksinpelto,pelto,V:3/11,I,7,J,3,Ahlainen,"Vasama, Marjatta",1963,A,00000059_F.jpg,,,,,1457,213533.7413234636,6853901.868356238,,KotusNA1,"\\tiedostot.ds.kotus.fi\digiwork2\nadigi\GRANON LOPULLISET DIGITOINNIT\0001_AHLAINEN\JPG\Ahlainen\A\kotus-201214_0001_AHLAINEN_00000059_F.jpg",53,,21.577555942366,61.710698929977
60,ala,A,,,,,,Ahlainen,"Miikkulainen, Raija",1986,A,00000060_F.jpg,,,,,0,-1,-1,,KotusNA1,"\\tiedostot.ds.kotus.fi\digiwork2\nadigi\GRANON LOPULLISET DIGITOINNIT\0001_AHLAINEN\JPG\Ahlainen\A\kotus-201214_0001_AHLAINEN_00000060_F.jpg",54,,-1,-1
61,Aladeeli,pelto,114211,,13,56,,Ahlainen,"Miikkulainen, Raija",1986,A,00000061_F.jpg,,,,,1483,213444.8195082607,6853624.249818398,,KotusNA1,"\\tiedostot.ds.kotus.fi\digiwork2\nadigi\GRANON LOPULLISET DIGITOINNIT\0001_AHLAINEN\JPG\Ahlainen\A\kotus-201214_0001_AHLAINEN_00000061_F.jpg",55,,21.576318693138,61.708151486803
62,Alagrundi,saari,V:3/16,II,4,A,,Ahlainen,"Vasama, Marjatta",1962,A,00000062_F.jpg,,,,,1458,210418.1489622491,6852416.751059456,,KotusNA1,"\\tiedostot.ds.kotus.fi\digiwork2\nadigi\GRANON LOPULLISET DIGITOINNIT\0001_AHLAINEN\JPG\Ahlainen\A\kotus-201214_0001_AHLAINEN_00000062_F.jpg",56,,21.521260224138,61.695088176502
64,Alaholma,saari,114208+114205,,13,59,,Ahlainen,"Miikkulainen, Raija",1986,A,00000064_F.jpg,,,,,1482,212998.5827651667,6856700.092001171,12,KotusNA1,"\\tiedostot.ds.kotus.fi\digiwork2\nadigi\GRANON LOPULLISET DIGITOINNIT\0001_AHLAINEN\JPG\Ahlainen\A\kotus-201214_0001_AHLAINEN_00000064_F.jpg",57,,21.563063833024,61.735305344528
65,Alaholma,saari,V:3/11,I,4,J,,Ahlainen,"Vasama, Marjatta",1962,A,00000065_F.jpg,,,,,1457,210620.5997920703,6854379.942840871,,KotusNA1,"\\tiedostot.ds.kotus.fi\digiwork2\nadigi\GRANON LOPULLISET DIGITOINNIT\0001_AHLAINEN\JPG\Ahlainen\A\kotus-201214_0001_AHLAINEN_00000065_F.jpg",58,,21.521950298127,61.712783938682
67,Alaholma,saari,V:3/11,I,6,H,,Ahlainen,"Vasama, Marjatta",1963,A,00000067_F.jpg,,,,,1457,212807.9592625989,6856263.158690745,,KotusNA1,"\\tiedostot.ds.kotus.fi\digiwork2\nadigi\GRANON LOPULLISET DIGITOINNIT\0001_AHLAINEN\JPG\Ahlainen\A\kotus-201214_0001_AHLAINEN_00000067_F.jpg",59,,21.560162462783,61.731257844383
68,Alaholmanlahti,lahti,V:3/16,1,5,B,1,Ahlainen,"Kleemola, Tarja",1969,A,00000068_F.jpg,,,,,1476,211588.7308882844,6851801.212091695,,KotusNA1,"\\tiedostot.ds.kotus.fi\digiwork2\nadigi\GRANON LOPULLISET DIGITOINNIT\0001_AHLAINEN\JPG\Ahlainen\A\kotus-201214_0001_AHLAINEN_00000068_F.jpg",60,,21.544262074658,61.690469108932
69,Alaholmanluoto,kari,114208+114205,,11,55,13,Ahlainen,"Miikkulainen, Raija",1986,A,00000069_F.jpg,,,,,1482,211590.6639634503,6852191.133011455,,KotusNA1,"\\tiedostot.ds.kotus.fi\digiwork2\nadigi\GRANON LOPULLISET DIGITOINNIT\0001_AHLAINEN\JPG\Ahlainen\A\kotus-201214_0001_AHLAINEN_00000069_F.jpg",61,,21.543681476258,61.693955012327
70,Alaholmannokka,niemi,114208+114205,,12,59,17,Ahlainen,"Miikkulainen, Raija",1986,A,00000070_F.jpg,,,,,1482,212843.337570986,6856348.859513901,,KotusNA1,"\\tiedostot.ds.kotus.fi\digiwork2\nadigi\GRANON LOPULLISET DIGITOINNIT\0001_AHLAINEN\JPG\Ahlainen\A\kotus-201214_0001_AHLAINEN_00000070_F.jpg",62,,21.560693596733,61.732050224956
72,Alainginviiki,lahti,114207+114204,,07,48,7,Ahlainen,"Miikkulainen, Raija",1974,A,00000072_F.jpg,,,,,1477,207494.9477779188,6845213.061100616,,KotusNA1,"\\tiedostot.ds.kotus.fi\digiwork2\nadigi\GRANON LOPULLISET DIGITOINNIT\0001_AHLAINEN\JPG\Ahlainen\A\kotus-201214_0001_AHLAINEN_00000072_F.jpg",63,,21.477791291558,61.628504403702
73,Alaing,pelto,114207+114204,,08,48,5,Ahlainen,"Miikkulainen, Raija",1974,A,00000073_F.jpg,,,,,1477,208032.4279138878,6846021.965973764,,KotusNA1,"\\tiedostot.ds.kotus.fi\digiwork2\nadigi\GRANON LOPULLISET DIGITOINNIT\0001_AHLAINEN\JPG\Ahlainen\A\kotus-201214_0001_AHLAINEN_00000073_F.jpg",64,,21.486592865417,61.636140572073
74,Alainki,pelto,114207+114204,,08,48,5,Ahlainen,"Miikkulainen, Raija",1974,A,00000074_F.jpg,,,,,1477,208034.3111607805,6846023.849220657,,KotusNA1,"\\tiedostot.ds.kotus.fi\digiwork2\nadigi\GRANON LOPULLISET DIGITOINNIT\0001_AHLAINEN\JPG\Ahlainen\A\kotus-201214_0001_AHLAINEN_00000074_F.jpg",65,,21.486625229319,61.63615882916
75,Alakylä,kylä,114207+114204,,08-09,46-48,,Ahlainen,"Miikkulainen, Raija",1974,A,00000075_F.jpg,,,,,1477,208446.8706206807,6843628.24016179,,KotusNA1,"\\tiedostot.ds.kotus.fi\digiwork2\nadigi\GRANON LOPULLISET DIGITOINNIT\0001_AHLAINEN\JPG\Ahlainen\A\kotus-201214_0001_AHLAINEN_00000075_F.jpg",66,,21.498186332696,61.615065341798
76,Alakylä,kylä,,,,,,Ahlainen,"Kleemola, Tarja",1969,A,00000076_F.jpg,,,,,0,-1,-1,,KotusNA1,"\\tiedostot.ds.kotus.fi\digiwork2\nadigi\GRANON LOPULLISET DIGITOINNIT\0001_AHLAINEN\JPG\Ahlainen\A\kotus-201214_0001_AHLAINEN_00000076_F.jpg",67,,-1,-1
77,Alakylä,kylä,,,,,,Ahlainen,"Lenko, Marja",1967,A,00000077_F.jpg,,,,,0,-1,-1,,KotusNA1,"\\tiedostot.ds.kotus.fi\digiwork2\nadigi\GRANON LOPULLISET DIGITOINNIT\0001_AHLAINEN\JPG\Ahlainen\A\kotus-201214_0001_AHLAINEN_00000077_F.jpg",68,,-1,-1
78,Alakylä,kylä,,,,,,Ahlainen,"Vasama, Marjatta",1962,A,00000078_F.jpg,,,,,0,-1,-1,,KotusNA1,"\\tiedostot.ds.kotus.fi\digiwork2\nadigi\GRANON LOPULLISET DIGITOINNIT\0001_AHLAINEN\JPG\Ahlainen\A\kotus-201214_0001_AHLAINEN_00000078_F.jpg",69,,-1,-1
80,"Alakylän tienvarsipalsta",metsä,,2,2,K,3,Ahlainen,"Peltola, Satu-Liisa",1966,A,00000080_F.jpg,,,,,1467,218516.3105687955,6841770.573538513,,KotusNA1,"\\tiedostot.ds.kotus.fi\digiwork2\nadigi\GRANON LOPULLISET DIGITOINNIT\0001_AHLAINEN\JPG\Ahlainen\A\kotus-201214_0001_AHLAINEN_00000080_F.jpg",70,,21.69007365513,61.605954995793
81,Alandeeli,pelto,114211,,13,56,35,Ahlainen,"Miikkulainen, Raija",1986,A,00000081_F.jpg,,,,,1483,213894.9306977609,6853320.544871303,,KotusNA1,"\\tiedostot.ds.kotus.fi\digiwork2\nadigi\GRANON LOPULLISET DIGITOINNIT\0001_AHLAINEN\JPG\Ahlainen\A\kotus-201214_0001_AHLAINEN_00000081_F.jpg",71,,21.585270239236,61.705773345257
82,Ala-Orviiki,pelto,114210,,15,50,1,Ahlainen,"Miikkulainen, Raija",1986,A,00000082_F.jpg,,,,,1481,215896.7062311427,6848076.242508106,,KotusNA1,"\\tiedostot.ds.kotus.fi\digiwork2\nadigi\GRANON LOPULLISET DIGITOINNIT\0001_AHLAINEN\JPG\Ahlainen\A\kotus-201214_0001_AHLAINEN_00000082_F.jpg",72,,21.631126424879,61.660390130041
83,Alaperi,saari,V:2/15,IV,11,K,,Ahlainen,"Vasama, Marjatta",1963,A,00000083_F.jpg,,,,,1460,206693.6742853636,6853847.210421604,,KotusNA1,"\\tiedostot.ds.kotus.fi\digiwork2\nadigi\GRANON LOPULLISET DIGITOINNIT\0001_AHLAINEN\JPG\Ahlainen\A\kotus-201214_0001_AHLAINEN_00000083_F.jpg",73,,21.448880442764,61.70504073501
84,Ala-Uotila,talo,,,,,,Ahlainen,"Kleemola, Tarja",1969,A,00000084_F.jpg,,,,,0,-1,-1,,KotusNA1,"\\tiedostot.ds.kotus.fi\digiwork2\nadigi\GRANON LOPULLISET DIGITOINNIT\0001_AHLAINEN\JPG\Ahlainen\A\kotus-201214_0001_AHLAINEN_00000084_F.jpg",74,,-1,-1
85,Ala-Uotila,talo,V:3/16,II,9,C,,Ahlainen,"Vasama, Marjatta",1963,A,00000085_F.jpg,,,,,1458,215295.1123239328,6850021.411495527,,KotusNA1,"\\tiedostot.ds.kotus.fi\digiwork2\nadigi\GRANON LOPULLISET DIGITOINNIT\0001_AHLAINEN\JPG\Ahlainen\A\kotus-201214_0001_AHLAINEN_00000085_F.jpg",75,,21.616783879022,61.677329727888
86,"Albert Meriluoto",tila,114208+114205,,08,55,2,Ahlainen,"Miikkulainen, Raija",1986,A,00000086_F.jpg,,,,,1482,208743.1056980182,6852608.559600986,,KotusNA1,"\\tiedostot.ds.kotus.fi\digiwork2\nadigi\GRANON LOPULLISET DIGITOINNIT\0001_AHLAINEN\JPG\Ahlainen\A\kotus-201214_0001_AHLAINEN_00000086_F.jpg",76,,21.489435514032,61.695534449267
87,Aleniuksenpellot,pelto,114207+114204,,09,48,10,Ahlainen,"Miikkulainen, Raija",1974,A,00000087_F.jpg,,,,,1477,209012.5252224254,6845951.937839255,,KotusNA1,"\\tiedostot.ds.kotus.fi\digiwork2\nadigi\GRANON LOPULLISET DIGITOINNIT\0001_AHLAINEN\JPG\Ahlainen\A\kotus-201214_0001_AHLAINEN_00000087_F.jpg",77,,21.50511123017,61.636257434726
88,Alenius,tila,114207+114204,,09,48,2,Ahlainen,"Miikkulainen, Raija",1974,A,00000088_F.jpg,,,,,1477,209022.4034139044,6846039.606788738,,KotusNA1,"\\tiedostot.ds.kotus.fi\digiwork2\nadigi\GRANON LOPULLISET DIGITOINNIT\0001_AHLAINEN\JPG\Ahlainen\A\kotus-201214_0001_AHLAINEN_00000088_F.jpg",78,,21.505157375054,61.637048298386
89,Alenius,tila,114207+114204,,08,48,3,Ahlainen,"Miikkulainen, Raija",1974,A,00000089_F.jpg,,,,,1477,208740.216064491,6846046.687554906,,KotusNA1,"\\tiedostot.ds.kotus.fi\digiwork2\nadigi\GRANON LOPULLISET DIGITOINNIT\0001_AHLAINEN\JPG\Ahlainen\A\kotus-201214_0001_AHLAINEN_00000089_F.jpg",79,,21.499846264063,61.63689801584
90,Alhola,tila,V:3/16,1,6,B,,Ahlainen,"Kleemola, Tarja",1969,A,00000090_F.jpg,,,,,1476,212267.9477273994,6851317.059003323,,KotusNA1,"\\tiedostot.ds.kotus.fi\digiwork2\nadigi\GRANON LOPULLISET DIGITOINNIT\0001_AHLAINEN\JPG\Ahlainen\A\kotus-201214_0001_AHLAINEN_00000090_F.jpg",80,,21.557805947752,61.686652257033
91,Alhola,talo,V:3/16,II,6,B,,Ahlainen,"Vasama, Marjatta",1962,A,00000091_F.jpg,,,,,1458,212357.0819868411,6851258.530710552,,KotusNA1,"\\tiedostot.ds.kotus.fi\digiwork2\nadigi\GRANON LOPULLISET DIGITOINNIT\0001_AHLAINEN\JPG\Ahlainen\A\kotus-201214_0001_AHLAINEN_00000091_F.jpg",81,,21.559575178491,61.686196015829
92,Alinenala,niitty,114211,,17,58,3,Ahlainen,"Miikkulainen, Raija",1986,A,00000092_F.jpg,,,,,1483,217726.7391869956,6855473.919823523,,KotusNA1,"\\tiedostot.ds.kotus.fi\digiwork2\nadigi\GRANON LOPULLISET DIGITOINNIT\0001_AHLAINEN\JPG\Ahlainen\A\kotus-201214_0001_AHLAINEN_00000092_F.jpg",82,,21.654073111335,61.727859221236
93,Alinenhuhta,pelto,114211,,16,56,9,Ahlainen,"Miikkulainen, Raija",1986,A,00000093_F.jpg,,,,,1483,216278.8596851239,6853575.691377198,,KotusNA1,"\\tiedostot.ds.kotus.fi\digiwork2\nadigi\GRANON LOPULLISET DIGITOINNIT\0001_AHLAINEN\JPG\Ahlainen\A\kotus-201214_0001_AHLAINEN_00000093_F.jpg",83,,21.62975473624,61.709824565348
95,"Alinen Kaasperi",saari,V:2/15,IV,11,K,1,Ahlainen,"Vasama, Marjatta",1963,A,00000095_F.jpg,,,,,1460,206630.093913908,6854335.779517496,,KotusNA1,"\\tiedostot.ds.kotus.fi\digiwork2\nadigi\GRANON LOPULLISET DIGITOINNIT\0001_AHLAINEN\JPG\Ahlainen\A\kotus-201214_0001_AHLAINEN_00000095_F.jpg",84,,21.446896589762,61.709357395583
96,Alinenkari,karikko,114207+114204,,08,46,1,Ahlainen,"Miikkulainen, Raija",1974,A,00000096_F.jpg,,,,,1477,208585.7147110068,6843858.22101339,,KotusNA1,"\\tiedostot.ds.kotus.fi\digiwork2\nadigi\GRANON LOPULLISET DIGITOINNIT\0001_AHLAINEN\JPG\Ahlainen\A\kotus-201214_0001_AHLAINEN_00000096_F.jpg",85,,21.500426534799,61.617225504596
97,Alinenkari,koski,,,,,,Ahlainen,"Kleemola, Tarja",1969,A,00000097_F.jpg,,,,,0,-1,-1,,KotusNA1,"\\tiedostot.ds.kotus.fi\digiwork2\nadigi\GRANON LOPULLISET DIGITOINNIT\0001_AHLAINEN\JPG\Ahlainen\A\kotus-201214_0001_AHLAINEN_00000097_F.jpg",86,,-1,-1
98,"Alinen Kirrikari",kari,114208+114205,,06,54,2,Ahlainen,"Miikkulainen, Raija",1986,A,00000098_F.jpg,,,,,1482,206618.1680130853,6851434.645715332,,KotusNA1,"\\tiedostot.ds.kotus.fi\digiwork2\nadigi\GRANON LOPULLISET DIGITOINNIT\0001_AHLAINEN\JPG\Ahlainen\A\kotus-201214_0001_AHLAINEN_00000098_F.jpg",87,,21.451343028608,61.683427024961
99,Alinenkorpi,pelto,114211,,15,59,1,Ahlainen,"Miikkulainen, Raija",1986,A,00000099_F.jpg,,,,,1483,215089.9692464407,6856223.220511333,,KotusNA1,"\\tiedostot.ds.kotus.fi\digiwork2\nadigi\GRANON LOPULLISET DIGITOINNIT\0001_AHLAINEN\JPG\Ahlainen\A\kotus-201214_0001_AHLAINEN_00000099_F.jpg",88,,21.60322198188,61.732604605035
100,Alinenkytö,pelto,114211,,14,58,7,Ahlainen,"Miikkulainen, Raija",1986,A,00000100_F.jpg,,,,,1483,214477.4639584659,6855701.399815891,,KotusNA1,"\\tiedostot.ds.kotus.fi\digiwork2\nadigi\GRANON LOPULLISET DIGITOINNIT\0001_AHLAINEN\JPG\Ahlainen\A\kotus-201214_0001_AHLAINEN_00000100_F.jpg",89,,21.592500654679,61.727485157437
102,Alinenlampi,pelto,114211,,13,57,23,Ahlainen,"Miikkulainen, Raija",1986,A,00000102_F.jpg,,,,,1483,213535.6506205467,6855015.5014784,,KotusNA1,"\\tiedostot.ds.kotus.fi\digiwork2\nadigi\GRANON LOPULLISET DIGITOINNIT\0001_AHLAINEN\JPG\Ahlainen\A\kotus-201214_0001_AHLAINEN_00000102_F.jpg",90,,21.575838616855,61.720652624549
103,"Alinen Luodemäki",pelto,114211,,16,56,11,Ahlainen,"Miikkulainen, Raija",1986,A,00000103_F.jpg,,,,,1483,216549.3764497595,6853830.837873169,,KotusNA1,"\\tiedostot.ds.kotus.fi\digiwork2\nadigi\GRANON LOPULLISET DIGITOINNIT\0001_AHLAINEN\JPG\Ahlainen\A\kotus-201214_0001_AHLAINEN_00000103_F.jpg",91,,21.63445114754,61.712305005022
104,Alinenniittu,pelto,114211,,14,58,12,Ahlainen,"Miikkulainen, Raija",1986,A,00000104_F.jpg,,,,,1483,214380.6312530402,6855828.20454926,,KotusNA1,"\\tiedostot.ds.kotus.fi\digiwork2\nadigi\GRANON LOPULLISET DIGITOINNIT\0001_AHLAINEN\JPG\Ahlainen\A\kotus-201214_0001_AHLAINEN_00000104_F.jpg",92,,21.590477177701,61.728546246684
106,Alinenpelto,pelto,114211,,13,57,15,Ahlainen,"Miikkulainen, Raija",1986,A,00000106_F.jpg,,,,,1483,213889.1668467711,6854826.44714967,,KotusNA1,"\\tiedostot.ds.kotus.fi\digiwork2\nadigi\GRANON LOPULLISET DIGITOINNIT\0001_AHLAINEN\JPG\Ahlainen\A\kotus-201214_0001_AHLAINEN_00000106_F.jpg",93,,21.582794357558,61.71922709654
107,Alinenpelto,pelto,114211,,16,56,19,Ahlainen,"Miikkulainen, Raija",1986,A,00000107_F.jpg,,,,,1483,216709.2272650703,6853483.469754555,,KotusNA1,"\\tiedostot.ds.kotus.fi\digiwork2\nadigi\GRANON LOPULLISET DIGITOINNIT\0001_AHLAINEN\JPG\Ahlainen\A\kotus-201214_0001_AHLAINEN_00000107_F.jpg",94,,21.638001992577,61.709318473046
109,Alinenpelto,pelto,114211,,14,58,12,Ahlainen,"Miikkulainen, Raija",1986,A,00000109_F.jpg,,,,,1483,214377.5571988992,6855831.278603397,,KotusNA1,"\\tiedostot.ds.kotus.fi\digiwork2\nadigi\GRANON LOPULLISET DIGITOINNIT\0001_AHLAINEN\JPG\Ahlainen\A\kotus-201214_0001_AHLAINEN_00000109_F.jpg",95,,21.590414433086,61.728571428102
111,Alinenpelto,pelto,114211,,16,60,7,Ahlainen,"Miikkulainen, Raija",1986,A,00000111_F.jpg,,,,,1483,216919.799975049,6857243.806498737,,KotusNA1,"\\tiedostot.ds.kotus.fi\digiwork2\nadigi\GRANON LOPULLISET DIGITOINNIT\0001_AHLAINEN\JPG\Ahlainen\A\kotus-201214_0001_AHLAINEN_00000111_F.jpg",96,,21.636112065475,61.743082575918
113,Alinenpelto,pelto,,1,15,49,4,Ahlainen,"Norrbacka, Hilkka",1977,A,00000113_F.jpg,,,,,1478,215529.1477274794,6846338.419994398,,KotusNA1,"\\tiedostot.ds.kotus.fi\digiwork2\nadigi\GRANON LOPULLISET DIGITOINNIT\0001_AHLAINEN\JPG\Ahlainen\A\kotus-201214_0001_AHLAINEN_00000113_F.jpg",97,,21.62692081583,61.644586330374
114,Alinenpelto,pelto,V:3/16,II,7,D,1,Ahlainen,"Vasama, Marjatta",1963,A,00000114_F.jpg,,,X,,1458,212736.6060437596,6849115.426063233,,KotusNA1,"\\tiedostot.ds.kotus.fi\digiwork2\nadigi\GRANON LOPULLISET DIGITOINNIT\0001_AHLAINEN\JPG\Ahlainen\A\kotus-201214_0001_AHLAINEN_00000114_F.jpg",98,,21.570088977623,61.667327954341
114,Alinenpelto,pelto,V:3/11,I,7,I,19,Ahlainen,"Vasama, Marjatta",1963,A,00000114_F.jpg,,,X,,1457,213864.1847465911,6854825.459893254,,KotusNA1,"\\tiedostot.ds.kotus.fi\digiwork2\nadigi\GRANON LOPULLISET DIGITOINNIT\0001_AHLAINEN\JPG\Ahlainen\A\kotus-201214_0001_AHLAINEN_00000114_F.jpg",99,,21.582325401627,61.719199627869
115,Alinenpiha,asumus,114208+114205,,12,58,26,Ahlainen,"Miikkulainen, Raija",1986,A,00000115_F.jpg,,,,,1482,212101.4208548401,6856066.112055776,,KotusNA1,"\\tiedostot.ds.kotus.fi\digiwork2\nadigi\GRANON LOPULLISET DIGITOINNIT\0001_AHLAINEN\JPG\Ahlainen\A\kotus-201214_0001_AHLAINEN_00000115_F.jpg",100,,21.547163300244,61.728966765631
116,"Alinen Pirttijärvi",tila,V:3/12,I,4,G,,Ahlainen,"Mäenpää, Marja-Liisa",1967,A,00000116_F.jpg,,,,,1469,221847.119615303,6854916.437257601,,KotusNA1,"\\tiedostot.ds.kotus.fi\digiwork2\nadigi\GRANON LOPULLISET DIGITOINNIT\0001_AHLAINEN\JPG\Ahlainen\A\kotus-201214_0001_AHLAINEN_00000116_F.jpg",101,,21.732568311403,61.725889010648
117,Alinenpuoli,pelto,114211,,16,56,11,Ahlainen,"Miikkulainen, Raija",1986,A,00000117_F.jpg,,,,,1483,216543.228341473,6853827.763818989,,KotusNA1,"\\tiedostot.ds.kotus.fi\digiwork2\nadigi\GRANON LOPULLISET DIGITOINNIT\0001_AHLAINEN\JPG\Ahlainen\A\kotus-201214_0001_AHLAINEN_00000117_F.jpg",102,,21.634340158857,61.712272985668
119,Alinenpuoli,pelto,114211,,16,56,3,Ahlainen,"Miikkulainen, Raija",1986,A,00000119_F.jpg,,,,,1483,216561.672666378,6853979.929499669,,KotusNA1,"\\tiedostot.ds.kotus.fi\digiwork2\nadigi\GRANON LOPULLISET DIGITOINNIT\0001_AHLAINEN\JPG\Ahlainen\A\kotus-201214_0001_AHLAINEN_00000119_F.jpg",103,,21.634450497284,61.713646617257
120,Alinenpää,pelto,114211,,16,60,11,Ahlainen,"Miikkulainen, Raija",1986,A,00000120_F.jpg,,,,,1483,216434.8679340171,6857144.668250072,,KotusNA1,"\\tiedostot.ds.kotus.fi\digiwork2\nadigi\GRANON LOPULLISET DIGITOINNIT\0001_AHLAINEN\JPG\Ahlainen\A\kotus-201214_0001_AHLAINEN_00000120_F.jpg",104,,21.627125990421,61.741837780272
121,"Alinen Skata",niemi,V:3/16,II,6,A,1,Ahlainen,"Vasama, Marjatta",1962,A,00000121_F.jpg,,,,,1458,212102.500446372,6852539.196822194,,KotusNA1,"\\tiedostot.ds.kotus.fi\digiwork2\nadigi\GRANON LOPULLISET DIGITOINNIT\0001_AHLAINEN\JPG\Ahlainen\A\kotus-201214_0001_AHLAINEN_00000121_F.jpg",105,,21.552763043397,61.697449782196
122,"Alinen Talholma",saari,V:3/11,I,4,J,1,Ahlainen,"Vasama, Marjatta",1962,A,00000122_F.jpg,,,,,1457,210503.1590843942,6854247.749899857,,KotusNA1,"\\tiedostot.ds.kotus.fi\digiwork2\nadigi\GRANON LOPULLISET DIGITOINNIT\0001_AHLAINEN\JPG\Ahlainen\A\kotus-201214_0001_AHLAINEN_00000122_F.jpg",106,,21.519949395488,61.711514030212
123,Alinentalo,talo,V:3/12,I,4,G,,Ahlainen,"Mäenpää, Marja-Liisa",1967,A,00000123_F.jpg,,,,,1469,221847.119615303,6854916.437257601,,KotusNA1,"\\tiedostot.ds.kotus.fi\digiwork2\nadigi\GRANON LOPULLISET DIGITOINNIT\0001_AHLAINEN\JPG\Ahlainen\A\kotus-201214_0001_AHLAINEN_00000123_F.jpg",107,,21.732568311403,61.725889010648
124,Alinenviiki,pelto,V:3/16,II,7,A,1,Ahlainen,"Vasama, Marjatta",1963,A,00000124_F.jpg,,,,,1458,213235.7070044247,6852662.466768204,,KotusNA1,"\\tiedostot.ds.kotus.fi\digiwork2\nadigi\GRANON LOPULLISET DIGITOINNIT\0001_AHLAINEN\JPG\Ahlainen\A\kotus-201214_0001_AHLAINEN_00000124_F.jpg",108,,21.573896219908,61.699400007873
125,Alminkari,saari,V:3/11,I,3,K,1,Ahlainen,"Vasama, Marjatta",1962,A,00000125_F.jpg,,,,,1457,209413.5663614816,6853182.4859033,,KotusNA1,"\\tiedostot.ds.kotus.fi\digiwork2\nadigi\GRANON LOPULLISET DIGITOINNIT\0001_AHLAINEN\JPG\Ahlainen\A\kotus-201214_0001_AHLAINEN_00000125_F.jpg",109,,21.501136060341,61.70117115062
126,Alorinkari,saari,V:3/16,1,9,D,1,Ahlainen,"Kleemola, Tarja",1969,A,00000126_F.jpg,,,X,,1476,215236.8720373387,6849161.873906488,,KotusNA1,"\\tiedostot.ds.kotus.fi\digiwork2\nadigi\GRANON LOPULLISET DIGITOINNIT\0001_AHLAINEN\JPG\Ahlainen\A\kotus-201214_0001_AHLAINEN_00000126_F.jpg",110,,21.617029420328,61.669604516693
126,Alorinränneli,saari,V:3/16,1,9,D,2,Ahlainen,"Kleemola, Tarja",1969,A,00000126_F.jpg,,,X,,1476,215091.7205327107,6849297.348643994,,KotusNA1,"\\tiedostot.ds.kotus.fi\digiwork2\nadigi\GRANON LOPULLISET DIGITOINNIT\0001_AHLAINEN\JPG\Ahlainen\A\kotus-201214_0001_AHLAINEN_00000126_F.jpg",111,,21.614088485435,61.670707678317
127,Alorin-Kässärä,H,,,,,,Ahlainen,"Peltola, Satu-Liisa",1966,A,00000127_F.jpg,,,,,0,-1,-1,,KotusNA1,"\\tiedostot.ds.kotus.fi\digiwork2\nadigi\GRANON LOPULLISET DIGITOINNIT\0001_AHLAINEN\JPG\Ahlainen\A\kotus-201214_0001_AHLAINEN_00000127_F.jpg",112,,-1,-1
128,Aloori,saari,114211,,15,51-52,,Ahlainen,"Miikkulainen, Raija",1986,A,00000128_F.jpg,,,,,1483,215463.2592286831,6848924.841020372,,KotusNA1,"\\tiedostot.ds.kotus.fi\digiwork2\nadigi\GRANON LOPULLISET DIGITOINNIT\0001_AHLAINEN\JPG\Ahlainen\A\kotus-201214_0001_AHLAINEN_00000128_F.jpg",113,,21.621655972265,61.667653792399
129,Aloori,saari,V:3/16,II,9,D,4,Ahlainen,"Vasama, Marjatta",1963,A,00000129_F.jpg,,,,,1458,215681.8488040608,6849401.320991757,,KotusNA1,"\\tiedostot.ds.kotus.fi\digiwork2\nadigi\GRANON LOPULLISET DIGITOINNIT\0001_AHLAINEN\JPG\Ahlainen\A\kotus-201214_0001_AHLAINEN_00000129_F.jpg",114,,21.62502425442,61.672074183155
130,Aloorinjoki,jokihaara,114211,,15,51,11,Ahlainen,"Miikkulainen, Raija",1986,A,00000130_F.jpg,,,,,1483,215209.0888420494,6849024.169941339,,KotusNA1,"\\tiedostot.ds.kotus.fi\digiwork2\nadigi\GRANON LOPULLISET DIGITOINNIT\0001_AHLAINEN\JPG\Ahlainen\A\kotus-201214_0001_AHLAINEN_00000130_F.jpg",115,,21.616721754044,61.668353203973
132,Aloorinkari,saari,114211,,15,52,7,Ahlainen,"Miikkulainen, Raija",1986,A,00000132_F.jpg,,,,,1483,215108.0293121904,6849248.960150844,,KotusNA1,"\\tiedostot.ds.kotus.fi\digiwork2\nadigi\GRANON LOPULLISET DIGITOINNIT\0001_AHLAINEN\JPG\Ahlainen\A\kotus-201214_0001_AHLAINEN_00000132_F.jpg",116,,21.614470687445,61.670287308181
133,Alperi,saari,V:2/15,IV,11,K,,Ahlainen,"Vasama, Marjatta",1963,A,00000133_F.jpg,,,,,1460,206693.6742853636,6853847.210421604,,KotusNA1,"\\tiedostot.ds.kotus.fi\digiwork2\nadigi\GRANON LOPULLISET DIGITOINNIT\0001_AHLAINEN\JPG\Ahlainen\A\kotus-201214_0001_AHLAINEN_00000133_F.jpg",117,,21.448880442764,61.70504073501
134,alusta,A,,,,,,Ahlainen,"Miikkulainen, Raija",1986,A,00000134_F.jpg,,,,,0,-1,-1,,KotusNA1,"\\tiedostot.ds.kotus.fi\digiwork2\nadigi\GRANON LOPULLISET DIGITOINNIT\0001_AHLAINEN\JPG\Ahlainen\A\kotus-201214_0001_AHLAINEN_00000134_F.jpg",118,,-1,-1
135,Amandapraaki,laiva,V:2/20,V,10,C,,Ahlainen,"Vasama, Marjatta",1963,A,00000135_F.jpg,,,,,1462,205661.3285400974,6850874.095955562,,KotusNA1,"\\tiedostot.ds.kotus.fi\digiwork2\nadigi\GRANON LOPULLISET DIGITOINNIT\0001_AHLAINEN\JPG\Ahlainen\A\kotus-201214_0001_AHLAINEN_00000135_F.jpg",119,,21.434251735237,61.677686372957
136,Ampperi,suo,,1,1,E,15,Ahlainen,"Lenko, Marja",1967,A,00000136_F.jpg,,,,,1471,217241.3142910104,6848081.663301263,,KotusNA1,"\\tiedostot.ds.kotus.fi\digiwork2\nadigi\GRANON LOPULLISET DIGITOINNIT\0001_AHLAINEN\JPG\Ahlainen\A\kotus-201214_0001_AHLAINEN_00000136_F.jpg",120,,21.656396969059,61.661430306589
137,Ankkurikari,saari,,1,8,G,6,Ahlainen,"Peltola, Satu-Liisa",1966,A,00000137_F.jpg,,,,,1466,213483.7325614487,6846088.195044622,,KotusNA1,"\\tiedostot.ds.kotus.fi\digiwork2\nadigi\GRANON LOPULLISET DIGITOINNIT\0001_AHLAINEN\JPG\Ahlainen\A\kotus-201214_0001_AHLAINEN_00000137_F.jpg",121,,21.588881881848,61.640831564739
138,Annankatu,tie,V:3/16,II,9,CD,9,Ahlainen,"Vasama, Marjatta",1963,A,00000138_F.jpg,,,,,1458,-1,-1,x,KotusNA1,"\\tiedostot.ds.kotus.fi\digiwork2\nadigi\GRANON LOPULLISET DIGITOINNIT\0001_AHLAINEN\JPG\Ahlainen\A\kotus-201214_0001_AHLAINEN_00000138_F.jpg",122,,-1,-1
139,Annanpelto,pelto,114211,,13,58,15,Ahlainen,"Miikkulainen, Raija",1986,A,00000139_F.jpg,,,,,1483,213355.8184533708,6855311.379189798,,KotusNA1,"\\tiedostot.ds.kotus.fi\digiwork2\nadigi\GRANON LOPULLISET DIGITOINNIT\0001_AHLAINEN\JPG\Ahlainen\A\kotus-201214_0001_AHLAINEN_00000139_F.jpg",123,,21.571985256584,61.723162359906
140,Annastiina,pelto,114211,,14,58,4,Ahlainen,"Miikkulainen, Raija",1986,A,00000140_F.jpg,,,,,1483,214825.9848467882,6855630.696572013,,KotusNA1,"\\tiedostot.ds.kotus.fi\digiwork2\nadigi\GRANON LOPULLISET DIGITOINNIT\0001_AHLAINEN\JPG\Ahlainen\A\kotus-201214_0001_AHLAINEN_00000140_F.jpg",124,,21.59917747996,61.727112787664
142,Anninkari,kari,V:2/20,V,11,C,12,Ahlainen,"Vasama, Marjatta",1963,A,00000142_F.jpg,,,,,1462,206544.7342532885,6850774.368126066,,KotusNA1,"\\tiedostot.ds.kotus.fi\digiwork2\nadigi\GRANON LOPULLISET DIGITOINNIT\0001_AHLAINEN\JPG\Ahlainen\A\kotus-201214_0001_AHLAINEN_00000142_F.jpg",125,,21.451023974918,61.677471383012
143,Antila,tila,V:3/17,II,4,M,,Ahlainen,"Mäenpää, Marja-Liisa",1967,A,00000143_F.jpg,,,,,1470,221217.8090746824,6847990.332453922,,KotusNA1,"\\tiedostot.ds.kotus.fi\digiwork2\nadigi\GRANON LOPULLISET DIGITOINNIT\0001_AHLAINEN\JPG\Ahlainen\A\kotus-201214_0001_AHLAINEN_00000143_F.jpg",126,,21.731306289,61.663519531291
144,Antinmaa,tila,114211,,16,53,,Ahlainen,"Miikkulainen, Raija",1986,A,00000144_F.jpg,,,,,1483,216443.6290346204,6850625.467068572,,KotusNA1,"\\tiedostot.ds.kotus.fi\digiwork2\nadigi\GRANON LOPULLISET DIGITOINNIT\0001_AHLAINEN\JPG\Ahlainen\A\kotus-201214_0001_AHLAINEN_00000144_F.jpg",127,,21.637448512563,61.683578378864
145,Antinmetsä,metsä,,3,4,A,2,Ahlainen,"Peltola, Satu-Liisa",1966,A,00000145_F.jpg,,,,,1468,219745.4828661666,6840748.118309977,,KotusNA1,"\\tiedostot.ds.kotus.fi\digiwork2\nadigi\GRANON LOPULLISET DIGITOINNIT\0001_AHLAINEN\JPG\Ahlainen\A\kotus-201214_0001_AHLAINEN_00000145_F.jpg",128,,21.714705654563,61.597711727362
146,Antinsauna,kivi,114401,,22,47,,Ahlainen,"Laine, Helena",1989,A,00000146_F.jpg,,,,,1485,222462.0848362919,6844619.900181754,,KotusNA1,"\\tiedostot.ds.kotus.fi\digiwork2\nadigi\GRANON LOPULLISET DIGITOINNIT\0001_AHLAINEN\JPG\Ahlainen\A\kotus-201214_0001_AHLAINEN_00000146_F.jpg",129,,21.759821033893,61.634290434752
147,Antoora,kylä,114208+114205,,03-06,52-54,,Ahlainen,"Miikkulainen, Raija",1986,A,00000147_F.jpg,,,,,1482,203475.3364164681,6849978.997093495,,KotusNA1,"\\tiedostot.ds.kotus.fi\digiwork2\nadigi\GRANON LOPULLISET DIGITOINNIT\0001_AHLAINEN\JPG\Ahlainen\A\kotus-201214_0001_AHLAINEN_00000147_F.jpg",130,,21.394603128547,61.668007924988
148,Anttila,tila,114211,,13,55,3,Ahlainen,"Miikkulainen, Raija",1986,A,00000148_F.jpg,,,,,1483,213205.9583128871,6852267.681320449,,KotusNA1,"\\tiedostot.ds.kotus.fi\digiwork2\nadigi\GRANON LOPULLISET DIGITOINNIT\0001_AHLAINEN\JPG\Ahlainen\A\kotus-201214_0001_AHLAINEN_00000148_F.jpg",131,,21.573957727109,61.69584967914
149,Anttila,tila,,3,4,A,6,Ahlainen,"Peltola, Satu-Liisa",1966,A,00000149_F.jpg,,,,,1468,220176.7241383335,6840750.395994573,,KotusNA1,"\\tiedostot.ds.kotus.fi\digiwork2\nadigi\GRANON LOPULLISET DIGITOINNIT\0001_AHLAINEN\JPG\Ahlainen\A\kotus-201214_0001_AHLAINEN_00000149_F.jpg",132,,21.722794131013,61.598045529396
150,Anttila,talo,V:3/16,II,7,A,,Ahlainen,"Vasama, Marjatta",1963,A,00000150_F.jpg,,,,,1458,213439.2445955423,6852197.050665975,,KotusNA1,"\\tiedostot.ds.kotus.fi\digiwork2\nadigi\GRANON LOPULLISET DIGITOINNIT\0001_AHLAINEN\JPG\Ahlainen\A\kotus-201214_0001_AHLAINEN_00000150_F.jpg",133,,21.578459118365,61.695392750628
151,Anttila,talo,V:3/11,I,7,J,,Ahlainen,"Vasama, Marjatta",1963,A,00000151_F.jpg,,,,,1457,213662.7035422383,6854135.556409726,,KotusNA1,"\\tiedostot.ds.kotus.fi\digiwork2\nadigi\GRANON LOPULLISET DIGITOINNIT\0001_AHLAINEN\JPG\Ahlainen\A\kotus-201214_0001_AHLAINEN_00000151_F.jpg",134,,21.579616469932,61.712883667375
152,"Anttilan Iso-oja",oja,114208+114205,,12,57,21,Ahlainen,"Miikkulainen, Raija",1986,A,00000152_F.jpg,,,,,1482,212837.0367914027,6854480.284762508,,KotusNA1,"\\tiedostot.ds.kotus.fi\digiwork2\nadigi\GRANON LOPULLISET DIGITOINNIT\0001_AHLAINEN\JPG\Ahlainen\A\kotus-201214_0001_AHLAINEN_00000152_F.jpg",135,,21.563525638463,61.715346930802
153,Anttilannokka,niemi,114208+114205,,12,57,20,Ahlainen,"Miikkulainen, Raija",1986,A,00000153_F.jpg,,,,,1482,212588.1560246673,6854526.753005896,,KotusNA1,"\\tiedostot.ds.kotus.fi\digiwork2\nadigi\GRANON LOPULLISET DIGITOINNIT\0001_AHLAINEN\JPG\Ahlainen\A\kotus-201214_0001_AHLAINEN_00000153_F.jpg",136,,21.558765627667,61.715575714433
154,Anttoora,saari,114208+114205,,04-06,52-53,,Ahlainen,"Miikkulainen, Raija",1986,A,00000154_F.jpg,,,,,1482,204468.5446045035,6849933.066401076,,KotusNA1,"\\tiedostot.ds.kotus.fi\digiwork2\nadigi\GRANON LOPULLISET DIGITOINNIT\0001_AHLAINEN\JPG\Ahlainen\A\kotus-201214_0001_AHLAINEN_00000154_F.jpg",137,,21.413347037184,61.668362862898
155,Anttoora,tila,114208+114205,,05,53,,Ahlainen,"Miikkulainen, Raija",1986,A,00000155_F.jpg,,,,,1482,205448.0430105094,6850625.417876987,,KotusNA1,"\\tiedostot.ds.kotus.fi\digiwork2\nadigi\GRANON LOPULLISET DIGITOINNIT\0001_AHLAINEN\JPG\Ahlainen\A\kotus-201214_0001_AHLAINEN_00000155_F.jpg",138,,21.430642548555,61.675301002027
156,Anttoora,saari,,,,,,Ahlainen,"Eloranta, Aino",1962,A,00000156_F.jpg,,,,,0,-1,-1,,KotusNA1,"\\tiedostot.ds.kotus.fi\digiwork2\nadigi\GRANON LOPULLISET DIGITOINNIT\0001_AHLAINEN\JPG\Ahlainen\A\kotus-201214_0001_AHLAINEN_00000156_F.jpg",139,,-1,-1
157,Anttoora,,,,,,,Ahlainen,"Eloranta, Aino",1962,A,00000157_F.jpg,J,,,,0,-1,-1,,KotusNA1,"\\tiedostot.ds.kotus.fi\digiwork2\nadigi\GRANON LOPULLISET DIGITOINNIT\0001_AHLAINEN\JPG\Ahlainen\A\kotus-201214_0001_AHLAINEN_00000157_F.jpg",140,139,-1,-1
158,Anttoora,saari,V:2/20,V,9-11,CD,,Ahlainen,"Vasama, Marjatta",1963,A,00000158_F.jpg,,,,,1462,204656.8694253009,6850966.569723643,,KotusNA1,"\\tiedostot.ds.kotus.fi\digiwork2\nadigi\GRANON LOPULLISET DIGITOINNIT\0001_AHLAINEN\JPG\Ahlainen\A\kotus-201214_0001_AHLAINEN_00000158_F.jpg",141,,21.415214896974,61.677741413966
159,Anttooranlaaka,kari,114208+114205,,02,58,2,Ahlainen,"Miikkulainen, Raija",1986,A,00000159_F.jpg,,,,,1482,202693.5703588128,6855818.412633261,,KotusNA1,"\\tiedostot.ds.kotus.fi\digiwork2\nadigi\GRANON LOPULLISET DIGITOINNIT\0001_AHLAINEN\JPG\Ahlainen\A\kotus-201214_0001_AHLAINEN_00000159_F.jpg",142,,21.370383622321,61.719571610583
160,Anttooranluoto,saari,114208+114205,,04-06,52-53,,Ahlainen,"Miikkulainen, Raija",1986,A,00000160_F.jpg,,,,,1482,204468.5446045035,6849933.066401076,,KotusNA1,"\\tiedostot.ds.kotus.fi\digiwork2\nadigi\GRANON LOPULLISET DIGITOINNIT\0001_AHLAINEN\JPG\Ahlainen\A\kotus-201214_0001_AHLAINEN_00000160_F.jpg",143,,21.413347037184,61.668362862898
161,Antviikinviiki,lahti,114207+114204,,08,49,3,Ahlainen,"Miikkulainen, Raija",1974,A,00000161_F.jpg,,,X,,1477,208580.3543470684,6846719.967225061,,KotusNA1,"\\tiedostot.ds.kotus.fi\digiwork2\nadigi\GRANON LOPULLISET DIGITOINNIT\0001_AHLAINEN\JPG\Ahlainen\A\kotus-201214_0001_AHLAINEN_00000161_F.jpg",144,,21.495771626084,61.642793140094
161,Antviiki,asumus,114207+114204,,08,49,,Ahlainen,"Miikkulainen, Raija",1974,A,00000161_F.jpg,,,X,,1477,208446.8571503154,6846627.036360662,,KotusNA1,"\\tiedostot.ds.kotus.fi\digiwork2\nadigi\GRANON LOPULLISET DIGITOINNIT\0001_AHLAINEN\JPG\Ahlainen\A\kotus-201214_0001_AHLAINEN_00000161_F.jpg",145,,21.493412036345,61.641861566196
162,Antviiki,,,,,,,Ahlainen,"Miikkulainen, Raija",1974,A,00000162_F.jpg,J,,,,0,-1,-1,,KotusNA1,"\\tiedostot.ds.kotus.fi\digiwork2\nadigi\GRANON LOPULLISET DIGITOINNIT\0001_AHLAINEN\JPG\Ahlainen\A\kotus-201214_0001_AHLAINEN_00000162_F.jpg",146,145,-1,-1
163,apaa,A,,,,,,Ahlainen,"Miikkulainen, Raija",1974,A,00000163_F.jpg,,,,,0,-1,-1,,KotusNA1,"\\tiedostot.ds.kotus.fi\digiwork2\nadigi\GRANON LOPULLISET DIGITOINNIT\0001_AHLAINEN\JPG\Ahlainen\A\kotus-201214_0001_AHLAINEN_00000163_F.jpg",147,,-1,-1
164,apaja,A,,,,,,Ahlainen,"Kleemola, Tarja",1969,A,00000164_F.jpg,,,,,0,-1,-1,,KotusNA1,"\\tiedostot.ds.kotus.fi\digiwork2\nadigi\GRANON LOPULLISET DIGITOINNIT\0001_AHLAINEN\JPG\Ahlainen\A\kotus-201214_0001_AHLAINEN_00000164_F.jpg",148,,-1,-1
165,Apajakari,niemi,114208+114205,,05,53,7,Ahlainen,"Miikkulainen, Raija",1986,A,00000165_F.jpg,,,,,1482,205556.0929695999,6851045.178811926,,KotusNA1,"\\tiedostot.ds.kotus.fi\digiwork2\nadigi\GRANON LOPULLISET DIGITOINNIT\0001_AHLAINEN\JPG\Ahlainen\A\kotus-201214_0001_AHLAINEN_00000165_F.jpg",149,,21.431996829944,61.679134265153
166,Apajakari,kari,114208+114205,,09,56,5,Ahlainen,"Miikkulainen, Raija",1986,A,00000166_F.jpg,,,,,1482,209397.9929055849,6853613.140044997,,KotusNA1,"\\tiedostot.ds.kotus.fi\digiwork2\nadigi\GRANON LOPULLISET DIGITOINNIT\0001_AHLAINEN\JPG\Ahlainen\A\kotus-201214_0001_AHLAINEN_00000166_F.jpg",150,,21.500155815322,61.705007523477
167,Apajakarinlahti,meri,114208+114205,,05,54,,Ahlainen,"Miikkulainen, Raija",1986,A,00000167_F.jpg,,,,,1482,205448.0385410032,6851625.016625242,,KotusNA1,"\\tiedostot.ds.kotus.fi\digiwork2\nadigi\GRANON LOPULLISET DIGITOINNIT\0001_AHLAINEN\JPG\Ahlainen\A\kotus-201214_0001_AHLAINEN_00000167_F.jpg",151,,21.429028655001,61.68423201237
168,Apsunti,lahti,V:3/16,1,6,C,2,Ahlainen,"Kleemola, Tarja",1969,A,00000168_F.jpg,,,X,,1476,212043.5389354946,6850243.252604897,,KotusNA1,"\\tiedostot.ds.kotus.fi\digiwork2\nadigi\GRANON LOPULLISET DIGITOINNIT\0001_AHLAINEN\JPG\Ahlainen\A\kotus-201214_0001_AHLAINEN_00000168_F.jpg",152,,21.55527921136,61.67688794996
168,Apsuntipelto,pelto,V:3/16,1,6,C,3,Ahlainen,"Kleemola, Tarja",1969,A,00000168_F.jpg,,,X,,1476,212033.8621686815,6850683.545503927,,KotusNA1,"\\tiedostot.ds.kotus.fi\digiwork2\nadigi\GRANON LOPULLISET DIGITOINNIT\0001_AHLAINEN\JPG\Ahlainen\A\kotus-201214_0001_AHLAINEN_00000168_F.jpg",153,,21.554402303368,61.68081536232
169,Apsuntiviiki,lahti,V:3/16,II,6,C,1,Ahlainen,"Vasama, Marjatta",1962,A,00000169_F.jpg,,,,,1458,211808.2346876717,6850387.082913254,,KotusNA1,"\\tiedostot.ds.kotus.fi\digiwork2\nadigi\GRANON LOPULLISET DIGITOINNIT\0001_AHLAINEN\JPG\Ahlainen\A\kotus-201214_0001_AHLAINEN_00000169_F.jpg",154,,21.550626664957,61.677996771799
170,Arkkukivi,kivi,V:3/17,II,4,K,1,Ahlainen,"Mäenpää, Marja-Liisa",1967,A,00000170_F.jpg,,,,,1470,221547.6453579598,6850159.506683579,,KotusNA1,"\\tiedostot.ds.kotus.fi\digiwork2\nadigi\GRANON LOPULLISET DIGITOINNIT\0001_AHLAINEN\JPG\Ahlainen\A\kotus-201214_0001_AHLAINEN_00000170_F.jpg",155,,21.734199423491,61.683149246831
171,Aromaa,tila,V:3/17,II,3,M,,Ahlainen,"Mäenpää, Marja-Liisa",1967,A,00000171_F.jpg,,,,,1470,220002.9295266127,6848093.375512909,,KotusNA1,"\\tiedostot.ds.kotus.fi\digiwork2\nadigi\GRANON LOPULLISET DIGITOINNIT\0001_AHLAINEN\JPG\Ahlainen\A\kotus-201214_0001_AHLAINEN_00000171_F.jpg",156,,21.708303882278,61.663557243981
172,Arveranta,asumus,114211,,14,57,7,Ahlainen,"Miikkulainen, Raija",1986,A,00000172_F.jpg,,,,,1483,214247.2941542844,6854808.771340001,,KotusNA1,"\\tiedostot.ds.kotus.fi\digiwork2\nadigi\GRANON LOPULLISET DIGITOINNIT\0001_AHLAINEN\JPG\Ahlainen\A\kotus-201214_0001_AHLAINEN_00000172_F.jpg",157,,21.589567108311,61.71933624483
173,Arveranta,maa,V:3/11,I,7,J,,Ahlainen,"Vasama, Marjatta",1963,A,00000173_F.jpg,,,,,1457,213662.7035422383,6854135.556409726,,KotusNA1,"\\tiedostot.ds.kotus.fi\digiwork2\nadigi\GRANON LOPULLISET DIGITOINNIT\0001_AHLAINEN\JPG\Ahlainen\A\kotus-201214_0001_AHLAINEN_00000173_F.jpg",158,,21.579616469932,61.712883667375
174,Aselli,asumus,114207+114204,,09,48,14,Ahlainen,"Miikkulainen, Raija",1974,A,00000174_F.jpg,,,,,1477,209212.5585988882,6845235.768957542,,KotusNA1,"\\tiedostot.ds.kotus.fi\digiwork2\nadigi\GRANON LOPULLISET DIGITOINNIT\0001_AHLAINEN\JPG\Ahlainen\A\kotus-201214_0001_AHLAINEN_00000174_F.jpg",159,,21.510005609885,61.630009105924
175,Ateriakivi,kivi,,1,2,D,1,Ahlainen,"Lenko, Marja",1967,A,00000175_F.jpg,,,,,1471,218472.0586619361,6849173.160600923,,KotusNA1,"\\tiedostot.ds.kotus.fi\digiwork2\nadigi\GRANON LOPULLISET DIGITOINNIT\0001_AHLAINEN\JPG\Ahlainen\A\kotus-201214_0001_AHLAINEN_00000175_F.jpg",160,,21.677854103784,61.672090118585
176,aukee,A,,,,,,Ahlainen,"Miikkulainen, Raija",1986,A,00000176_F.jpg,,,,,0,-1,-1,,KotusNA1,"\\tiedostot.ds.kotus.fi\digiwork2\nadigi\GRANON LOPULLISET DIGITOINNIT\0001_AHLAINEN\JPG\Ahlainen\A\kotus-201214_0001_AHLAINEN_00000176_F.jpg",161,,-1,-1
177,Aurinkokivi,kivi,114211,,16,57,13,Ahlainen,"Miikkulainen, Raija",1986,A,00000177_F.jpg,,,,,1483,216364.5489447133,6854701.947968061,,KotusNA1,"\\tiedostot.ds.kotus.fi\digiwork2\nadigi\GRANON LOPULLISET DIGITOINNIT\0001_AHLAINEN\JPG\Ahlainen\A\kotus-201214_0001_AHLAINEN_00000177_F.jpg",162,,21.629612669286,61.719953925205
178,Autio,tila,,1,1,D,3,Ahlainen,"Lenko, Marja",1967,A,00000178_F.jpg,,,,,1471,218136.1172759808,6848649.89130165,,KotusNA1,"\\tiedostot.ds.kotus.fi\digiwork2\nadigi\GRANON LOPULLISET DIGITOINNIT\0001_AHLAINEN\JPG\Ahlainen\A\kotus-201214_0001_AHLAINEN_00000178_F.jpg",163,,21.672343588313,61.667166650083
179,Autio,pelto,V:3/11,I,6,J,17,Ahlainen,"Vasama, Marjatta",1963,A,00000179_F.jpg,,,,,1457,212757.883117999,6854619.537195537,,KotusNA1,"\\tiedostot.ds.kotus.fi\digiwork2\nadigi\GRANON LOPULLISET DIGITOINNIT\0001_AHLAINEN\JPG\Ahlainen\A\kotus-201214_0001_AHLAINEN_00000179_F.jpg",164,,21.561815274494,61.71653207503
180,Avellaninpuoli,korpi,114210,,18,43,,Ahlainen,"Miikkulainen, Raija",1984,A,00000180_F.jpg,,,,,1481,218442.8712627623,6840629.489044655,,KotusNA1,"\\tiedostot.ds.kotus.fi\digiwork2\nadigi\GRANON LOPULLISET DIGITOINNIT\0001_AHLAINEN\JPG\Ahlainen\A\kotus-201214_0001_AHLAINEN_00000180_F.jpg",165,,21.690446129996,61.595701662824
181,Baablingi,kari,114208+114205,,09,54,1,Ahlainen,"Miikkulainen, Raija",1986,B,00000181_F.jpg,,,,,1482,209831.9590517139,6851598.46598449,,KotusNA1,"\\tiedostot.ds.kotus.fi\digiwork2\nadigi\GRANON LOPULLISET DIGITOINNIT\0001_AHLAINEN\JPG\Ahlainen\B\kotus-201214_0001_AHLAINEN_00000181_F.jpg",166,,21.511532479469,61.687333347683
182,Baablinginlahti,meri,114208+114205,,08-10,54-55,,Ahlainen,"Miikkulainen, Raija",1986,B,00000182_F.jpg,,,,,1482,208446.8347749405,6851625.030038904,,KotusNA1,"\\tiedostot.ds.kotus.fi\digiwork2\nadigi\GRANON LOPULLISET DIGITOINNIT\0001_AHLAINEN\JPG\Ahlainen\B\kotus-201214_0001_AHLAINEN_00000182_F.jpg",167,,21.485433807329,61.686521226422
183,Baablingi,saari,V:3/16,II,3-4,B,,Ahlainen,"Vasama, Marjatta",1963,B,00000183_F.jpg,,,,,1458,209328.3870359235,6851488.647722983,,KotusNA1,"\\tiedostot.ds.kotus.fi\digiwork2\nadigi\GRANON LOPULLISET DIGITOINNIT\0001_AHLAINEN\JPG\Ahlainen\B\kotus-201214_0001_AHLAINEN_00000183_F.jpg",168,,21.502234374879,61.685971071599
184,Baanakallio,saari,V:3/16,II,6,A,8,Ahlainen,"Vasama, Marjatta",1963,B,00000184_F.jpg,,,,,1458,212554.3080004707,6852674.152328103,,KotusNA1,"\\tiedostot.ds.kotus.fi\digiwork2\nadigi\GRANON LOPULLISET DIGITOINNIT\0001_AHLAINEN\JPG\Ahlainen\B\kotus-201214_0001_AHLAINEN_00000184_F.jpg",169,,21.561053081274,61.698994548853
185,Baaslooda,apaja,V:3/16,II,3,D,2,Ahlainen,"Vasama, Marjatta",1963,B,00000185_F.jpg,,,,,1458,209213.7640367242,6849872.68728462,,KotusNA1,"\\tiedostot.ds.kotus.fi\digiwork2\nadigi\GRANON LOPULLISET DIGITOINNIT\0001_AHLAINEN\JPG\Ahlainen\B\kotus-201214_0001_AHLAINEN_00000185_F.jpg",170,,21.502653583007,61.671444558608
186,Backö,"maa-alueen osa",,,,,,Ahlainen,"Vasama, Marjatta",1963,B,00000186_F.jpg,,,,,0,-1,-1,,KotusNA1,"\\tiedostot.ds.kotus.fi\digiwork2\nadigi\GRANON LOPULLISET DIGITOINNIT\0001_AHLAINEN\JPG\Ahlainen\B\kotus-201214_0001_AHLAINEN_00000186_F.jpg",171,,-1,-1
187,Badstuskär,saari,V:3/16,II,1,"D,E,F",,Ahlainen,"Vasama, Marjatta",1963,B,00000187_F.jpg,,,X,,1458,207134.9414617143,6849657.956373623,,KotusNA1,"\\tiedostot.ds.kotus.fi\digiwork2\nadigi\GRANON LOPULLISET DIGITOINNIT\0001_AHLAINEN\JPG\Ahlainen\B\kotus-201214_0001_AHLAINEN_00000187_F.jpg",172,,21.463913757767,61.667946668643
187,Badstuskär,talo,V:3/16,II,1,D,,Ahlainen,"Vasama, Marjatta",1963,B,00000187_F.jpg,,,X,,1458,207134.9414617143,6849657.956373623,,KotusNA1,"\\tiedostot.ds.kotus.fi\digiwork2\nadigi\GRANON LOPULLISET DIGITOINNIT\0001_AHLAINEN\JPG\Ahlainen\B\kotus-201214_0001_AHLAINEN_00000187_F.jpg",173,,21.463913757767,61.667946668643
188,Baggeenniittu,pelto,V:3/16,1,9,F,1,Ahlainen,"Kleemola, Tarja",1969,B,00000188_F.jpg,,,,,1476,215170.3442636008,6846845.497802462,,KotusNA1,"\\tiedostot.ds.kotus.fi\digiwork2\nadigi\GRANON LOPULLISET DIGITOINNIT\0001_AHLAINEN\JPG\Ahlainen\B\kotus-201214_0001_AHLAINEN_00000188_F.jpg",174,,21.619389305188,61.648852736093
189,bakka,A,,,,,,Ahlainen,"Miikkulainen, Raija",1986,B,00000189_F.jpg,,,,,0,-1,-1,,KotusNA1,"\\tiedostot.ds.kotus.fi\digiwork2\nadigi\GRANON LOPULLISET DIGITOINNIT\0001_AHLAINEN\JPG\Ahlainen\B\kotus-201214_0001_AHLAINEN_00000189_F.jpg",175,,-1,-1
190,Bakkee,maa,V:3/16,II,9,E,2,Ahlainen,"Vasama, Marjatta",1963,B,00000190_F.jpg,,,,,1458,214981.4534038171,6847602.094359201,,KotusNA1,"\\tiedostot.ds.kotus.fi\digiwork2\nadigi\GRANON LOPULLISET DIGITOINNIT\0001_AHLAINEN\JPG\Ahlainen\B\kotus-201214_0001_AHLAINEN_00000190_F.jpg",176,,21.614660063274,61.655474768675
191,Bastuholma,torppa,,1,9,H,11,Ahlainen,"Peltola, Satu-Liisa",1966,B,00000191_F.jpg,,,,,1466,214442.1379794496,6845386.60880847,,KotusNA1,"\\tiedostot.ds.kotus.fi\digiwork2\nadigi\GRANON LOPULLISET DIGITOINNIT\0001_AHLAINEN\JPG\Ahlainen\B\kotus-201214_0001_AHLAINEN_00000191_F.jpg",177,,21.607982085573,61.635274055631
192,Bastuviiki,lahti,114211,,13,58,1,Ahlainen,"Miikkulainen, Raija",1986,B,00000192_F.jpg,,,,,1483,213240.541423275,6855898.523532526,,KotusNA1,"\\tiedostot.ds.kotus.fi\digiwork2\nadigi\GRANON LOPULLISET DIGITOINNIT\0001_AHLAINEN\JPG\Ahlainen\B\kotus-201214_0001_AHLAINEN_00000192_F.jpg",178,,21.568887891222,61.728323227994
193,Bastuviiki,lahti,V:3/11,I,6,H,1,Ahlainen,"Vasama, Marjatta",1963,B,00000193_F.jpg,,,X,,1457,213142.503113126,6855836.824812639,,KotusNA1,"\\tiedostot.ds.kotus.fi\digiwork2\nadigi\GRANON LOPULLISET DIGITOINNIT\0001_AHLAINEN\JPG\Ahlainen\B\kotus-201214_0001_AHLAINEN_00000193_F.jpg",179,,21.567138314273,61.727698476454
193,Bastuviikinkallio,,V:3/11,I,6,H,2,Ahlainen,"Vasama, Marjatta",1963,B,00000193_F.jpg,,,X,,1457,213242.2080925304,6855801.793996058,,KotusNA1,"\\tiedostot.ds.kotus.fi\digiwork2\nadigi\GRANON LOPULLISET DIGITOINNIT\0001_AHLAINEN\JPG\Ahlainen\B\kotus-201214_0001_AHLAINEN_00000193_F.jpg",180,,21.569071871976,61.727460039445
194,Bastuviikinranta,kariryhmä,114211,,13,58-59,,Ahlainen,"Miikkulainen, Raija",1986,B,00000194_F.jpg,,,,,1483,213452.4617504067,6855618.58633602,,KotusNA1,"\\tiedostot.ds.kotus.fi\digiwork2\nadigi\GRANON LOPULLISET DIGITOINNIT\0001_AHLAINEN\JPG\Ahlainen\B\kotus-201214_0001_AHLAINEN_00000194_F.jpg",181,,21.573321506819,61.72598003946
196,Bäriholma,saari,V:3/16,II,1,B,,Ahlainen,"Vasama, Marjatta",1963,B,00000196_F.jpg,,,,,1458,207299.8814865144,6851661.315381927,,KotusNA1,"\\tiedostot.ds.kotus.fi\digiwork2\nadigi\GRANON LOPULLISET DIGITOINNIT\0001_AHLAINEN\JPG\Ahlainen\B\kotus-201214_0001_AHLAINEN_00000196_F.jpg",182,,21.463801082207,61.685972663818
197,Bergö,kallio,114211,,14,51,1,Ahlainen,"Miikkulainen, Raija",1986,B,00000197_F.jpg,,,,,1483,214110.1144861674,6848901.207770045,,KotusNA1,"\\tiedostot.ds.kotus.fi\digiwork2\nadigi\GRANON LOPULLISET DIGITOINNIT\0001_AHLAINEN\JPG\Ahlainen\B\kotus-201214_0001_AHLAINEN_00000197_F.jpg",183,,21.596249848273,61.66643802831
198,Bielgsundi,salmi,114208+114205,,12,56,1,Ahlainen,"Miikkulainen, Raija",1986,B,00000198_F.jpg,,,,,1482,212439.6939212557,6853259.902641607,,KotusNA1,"\\tiedostot.ds.kotus.fi\digiwork2\nadigi\GRANON LOPULLISET DIGITOINNIT\0001_AHLAINEN\JPG\Ahlainen\B\kotus-201214_0001_AHLAINEN_00000198_F.jpg",184,,21.557971212431,61.704143225718
199,Bierholma,asumus,114208+114205,,11,56,8,Ahlainen,"Miikkulainen, Raija",1986,B,00000199_F.jpg,,,,,1482,210966.8868526484,6854054.194578107,,KotusNA1,"\\tiedostot.ds.kotus.fi\digiwork2\nadigi\GRANON LOPULLISET DIGITOINNIT\0001_AHLAINEN\JPG\Ahlainen\B\kotus-201214_0001_AHLAINEN_00000199_F.jpg",185,,21.52898754462,61.710134204986
200,Bierholma,asumus,V:3/11,I,6,K,,Ahlainen,"Vasama, Marjatta",1963,B,00000200_F.jpg,,,,,1457,212570.5314591241,6853246.928289712,,KotusNA1,"\\tiedostot.ds.kotus.fi\digiwork2\nadigi\GRANON LOPULLISET DIGITOINNIT\0001_AHLAINEN\JPG\Ahlainen\B\kotus-201214_0001_AHLAINEN_00000200_F.jpg",186,,21.560454569282,61.704125338496
201,"Bierholman lypsyranta",ranta,114208+114205,,12,56,18,Ahlainen,"Miikkulainen, Raija",1986,B,00000201_F.jpg,,,,,1482,212321.5543170441,6853959.289102228,,KotusNA1,"\\tiedostot.ds.kotus.fi\digiwork2\nadigi\GRANON LOPULLISET DIGITOINNIT\0001_AHLAINEN\JPG\Ahlainen\B\kotus-201214_0001_AHLAINEN_00000201_F.jpg",187,,21.554642314431,61.710304677087
202,Bierholmansunti,salmi,114208+114205,,12,56,17,Ahlainen,"Miikkulainen, Raija",1986,B,00000202_F.jpg,,,,,1482,212403.4644427868,6853901.794494897,,KotusNA1,"\\tiedostot.ds.kotus.fi\digiwork2\nadigi\GRANON LOPULLISET DIGITOINNIT\0001_AHLAINEN\JPG\Ahlainen\B\kotus-201214_0001_AHLAINEN_00000202_F.jpg",188,,21.556275321161,61.709852313909
203,Birksund,torppa,V:3/16,II,7,A,,Ahlainen,"Vasama, Marjatta",1963,B,00000203_F.jpg,,,,,1458,213439.2445955423,6852197.050665975,,KotusNA1,"\\tiedostot.ds.kotus.fi\digiwork2\nadigi\GRANON LOPULLISET DIGITOINNIT\0001_AHLAINEN\JPG\Ahlainen\B\kotus-201214_0001_AHLAINEN_00000203_F.jpg",189,,21.578459118365,61.695392750628
204,Bismööri,niitty,114207+114204,,10,48,3,Ahlainen,"Miikkulainen, Raija",1974,B,00000204_F.jpg,,,,,1477,210094.5832614111,6845483.357362449,,KotusNA1,"\\tiedostot.ds.kotus.fi\digiwork2\nadigi\GRANON LOPULLISET DIGITOINNIT\0001_AHLAINEN\JPG\Ahlainen\B\kotus-201214_0001_AHLAINEN_00000204_F.jpg",190,,21.526176053417,61.632887134455
205,Björkgrundi,saari,V:3/16,II,5,A,,Ahlainen,"Vasama, Marjatta",1962,B,00000205_F.jpg,,,,,1458,211426.9264551962,6852341.617275706,,KotusNA1,"\\tiedostot.ds.kotus.fi\digiwork2\nadigi\GRANON LOPULLISET DIGITOINNIT\0001_AHLAINEN\JPG\Ahlainen\B\kotus-201214_0001_AHLAINEN_00000205_F.jpg",191,,21.54036211873,61.695176688879
206,Björkholma,saari,V:3/11,I,6,J,,Ahlainen,"Vasama, Marjatta",1963,B,00000206_F.jpg,,,,,1457,212647.1727696862,6854218.271775366,,KotusNA1,"\\tiedostot.ds.kotus.fi\digiwork2\nadigi\GRANON LOPULLISET DIGITOINNIT\0001_AHLAINEN\JPG\Ahlainen\B\kotus-201214_0001_AHLAINEN_00000206_F.jpg",192,,21.560364083573,61.712863202901
207,Björkrunni,saari,114208+114205,,11,55,1,Ahlainen,"Miikkulainen, Raija",1986,B,00000207_F.jpg,,,,,1482,211055.8853539671,6852223.030702109,,KotusNA1,"\\tiedostot.ds.kotus.fi\digiwork2\nadigi\GRANON LOPULLISET DIGITOINNIT\0001_AHLAINEN\JPG\Ahlainen\B\kotus-201214_0001_AHLAINEN_00000207_F.jpg",193,,21.533568005392,61.693837784963
208,Björkinkari,luoto,,,,,,Ahlainen,"Eloranta, Aune",1962,B,00000208_F.jpg,,,,,0,-1,-1,,KotusNA1,"\\tiedostot.ds.kotus.fi\digiwork2\nadigi\GRANON LOPULLISET DIGITOINNIT\0001_AHLAINEN\JPG\Ahlainen\B\kotus-201214_0001_AHLAINEN_00000208_F.jpg",194,,-1,-1
209,Björkkilänräveli,riutta,V:2/20,V,11,C,9,Ahlainen,"Vasama, Marjatta",1963,B,00000209_F.jpg,,,,,1462,206683.1057122599,6850471.268738811,,KotusNA1,"\\tiedostot.ds.kotus.fi\digiwork2\nadigi\GRANON LOPULLISET DIGITOINNIT\0001_AHLAINEN\JPG\Ahlainen\B\kotus-201214_0001_AHLAINEN_00000209_F.jpg",195,,21.454113122939,61.674868909256
210,Björnholma,asumus,V:3/11,I,6,K,,Ahlainen,"Vasama, Marjatta",1963,B,00000210_F.jpg,,,,,1457,212570.5314591241,6853246.928289712,,KotusNA1,"\\tiedostot.ds.kotus.fi\digiwork2\nadigi\GRANON LOPULLISET DIGITOINNIT\0001_AHLAINEN\JPG\Ahlainen\B\kotus-201214_0001_AHLAINEN_00000210_F.jpg",196,,21.560454569282,61.704125338496
211,Björnholma,saari,V:3/16,II,3,B,,Ahlainen,"Vasama, Marjatta",1963,B,00000211_F.jpg,,,X,,1458,209328.3870359235,6851488.647722983,,KotusNA1,"\\tiedostot.ds.kotus.fi\digiwork2\nadigi\GRANON LOPULLISET DIGITOINNIT\0001_AHLAINEN\JPG\Ahlainen\B\kotus-201214_0001_AHLAINEN_00000211_F.jpg",197,,21.502234374879,61.685971071599
211,Björnholmanapaja,,V:3/16,II,3,B,2,Ahlainen,"Vasama, Marjatta",1963,B,00000211_F.jpg,,,X,,1458,209563.7722854748,6851212.134356443,,KotusNA1,"\\tiedostot.ds.kotus.fi\digiwork2\nadigi\GRANON LOPULLISET DIGITOINNIT\0001_AHLAINEN\JPG\Ahlainen\B\kotus-201214_0001_AHLAINEN_00000211_F.jpg",198,,21.507102608327,61.683678369236
213,Björnskalla,saari,V:2/15,IV,7,K,,Ahlainen,"Vasama, Marjatta",1963,B,00000213_F.jpg,,,,,1460,202903.9713657837,6854129.699507603,,KotusNA1,"\\tiedostot.ds.kotus.fi\digiwork2\nadigi\GRANON LOPULLISET DIGITOINNIT\0001_AHLAINEN\JPG\Ahlainen\B\kotus-201214_0001_AHLAINEN_00000213_F.jpg",199,,21.377101417382,61.704648215041
214,Björnö,tila,V:3/16,1,8,E,1,Ahlainen,"Kleemola, Tarja",1969,B,00000214_F.jpg,,,,,1476,214321.1778033181,6847878.141192397,,KotusNA1,"\\tiedostot.ds.kotus.fi\digiwork2\nadigi\GRANON LOPULLISET DIGITOINNIT\0001_AHLAINEN\JPG\Ahlainen\B\kotus-201214_0001_AHLAINEN_00000214_F.jpg",200,,21.601818215829,61.657451690479
215,Björnö,,,,,,,Ahlainen,"Kleemola, Tarja",1969,B,00000215_F.jpg,J,,,,0,-1,-1,,KotusNA1,"\\tiedostot.ds.kotus.fi\digiwork2\nadigi\GRANON LOPULLISET DIGITOINNIT\0001_AHLAINEN\JPG\Ahlainen\B\kotus-201214_0001_AHLAINEN_00000215_F.jpg",201,200,-1,-1
216,Blankkulahti,lahti,V:3/11,I,5-6,J,,Ahlainen,"Vasama, Marjatta",1963,B,00000216_F.jpg,,,,,1457,211633.2006968763,6854299.632342843,,KotusNA1,"\\tiedostot.ds.kotus.fi\digiwork2\nadigi\GRANON LOPULLISET DIGITOINNIT\0001_AHLAINEN\JPG\Ahlainen\B\kotus-201214_0001_AHLAINEN_00000216_F.jpg",202,,21.541143356921,61.712829094979
217,Blomkvist,asumus,114207+114204,,09,49,6,Ahlainen,"Miikkulainen, Raija",1974,B,00000217_F.jpg,,,,,1477,209034.7511532663,6846181.605791426,,KotusNA1,"\\tiedostot.ds.kotus.fi\digiwork2\nadigi\GRANON LOPULLISET DIGITOINNIT\0001_AHLAINEN\JPG\Ahlainen\B\kotus-201214_0001_AHLAINEN_00000217_F.jpg",203,,21.505163524129,61.63832651209
218,Blommankivet,luoto,,,,,,Ahlainen,"Eloranta, Aino",1962,B,00000218_F.jpg,,,,,0,-1,-1,,KotusNA1,"\\tiedostot.ds.kotus.fi\digiwork2\nadigi\GRANON LOPULLISET DIGITOINNIT\0001_AHLAINEN\JPG\Ahlainen\B\kotus-201214_0001_AHLAINEN_00000218_F.jpg",204,,-1,-1
219,Blommankivet,luoto,,,,,,Ahlainen,,,B,00000219_B.jpg,J,,,,0,-1,-1,,KotusNA1,"\\tiedostot.ds.kotus.fi\digiwork2\nadigi\GRANON LOPULLISET DIGITOINNIT\0001_AHLAINEN\JPG\Ahlainen\B\kotus-201214_0001_AHLAINEN_00000219_B.jpg",205,204,-1,-1
220,Blommankivet,,,,,,,Ahlainen,"Eloranta, Aino",1962,B,00000220_F.jpg,J,,,,0,-1,-1,,KotusNA1,"\\tiedostot.ds.kotus.fi\digiwork2\nadigi\GRANON LOPULLISET DIGITOINNIT\0001_AHLAINEN\JPG\Ahlainen\B\kotus-201214_0001_AHLAINEN_00000220_F.jpg",206,204,-1,-1
221,Blommankivet,luoto,,,,,,Ahlainen,"Eloranta, Aino",1920,B,00000221_F.jpg,,,,,0,-1,-1,,KotusNA1,"\\tiedostot.ds.kotus.fi\digiwork2\nadigi\GRANON LOPULLISET DIGITOINNIT\0001_AHLAINEN\JPG\Ahlainen\B\kotus-201214_0001_AHLAINEN_00000221_F.jpg",207,,-1,-1
222,Blommankivet,,,,,,,Ahlainen,,,B,00000222_B.jpg,J,,,,0,-1,-1,,KotusNA1,"\\tiedostot.ds.kotus.fi\digiwork2\nadigi\GRANON LOPULLISET DIGITOINNIT\0001_AHLAINEN\JPG\Ahlainen\B\kotus-201214_0001_AHLAINEN_00000222_B.jpg",208,204,-1,-1
223,Blommankivet,,,,,,,Ahlainen,"Eloranta, Aino",1920,B,00000223_F.jpg,J,,,,0,-1,-1,,KotusNA1,"\\tiedostot.ds.kotus.fi\digiwork2\nadigi\GRANON LOPULLISET DIGITOINNIT\0001_AHLAINEN\JPG\Ahlainen\B\kotus-201214_0001_AHLAINEN_00000223_F.jpg",209,207,-1,-1
224,Blommankivet,,,,,,,Ahlainen,,,B,00000224_B.jpg,J,,,,0,-1,-1,,KotusNA1,"\\tiedostot.ds.kotus.fi\digiwork2\nadigi\GRANON LOPULLISET DIGITOINNIT\0001_AHLAINEN\JPG\Ahlainen\B\kotus-201214_0001_AHLAINEN_00000224_B.jpg",210,207,-1,-1
225,Blomsterinkuja,tie,114211,,19,53,,Ahlainen,"Miikkulainen, Raija",1986,B,00000225_F.jpg,,,,,1483,219442.4251465852,6850625.480468748,,KotusNA1,"\\tiedostot.ds.kotus.fi\digiwork2\nadigi\GRANON LOPULLISET DIGITOINNIT\0001_AHLAINEN\JPG\Ahlainen\B\kotus-201214_0001_AHLAINEN_00000225_F.jpg",211,,21.693871937626,61.685781753449
226,Blumgrunni,saari,V:3/16,II,4,E,,Ahlainen,"Vasama, Marjatta",1963,B,00000226_F.jpg,,,,,1458,210099.1465821418,6848398.337594383,,KotusNA1,"\\tiedostot.ds.kotus.fi\digiwork2\nadigi\GRANON LOPULLISET DIGITOINNIT\0001_AHLAINEN\JPG\Ahlainen\B\kotus-201214_0001_AHLAINEN_00000226_F.jpg",212,,21.521641442841,61.658939019921
227,Blåstrickafors,koski,V:3/17,III,1,E,3,Ahlainen,"Vasama, Marjatta",1963,B,00000227_F.jpg,,,,,1459,217168.4850307659,6847639.742697256,,KotusNA1,"\\tiedostot.ds.kotus.fi\digiwork2\nadigi\GRANON LOPULLISET DIGITOINNIT\0001_AHLAINEN\JPG\Ahlainen\B\kotus-201214_0001_AHLAINEN_00000227_F.jpg",213,,21.655711790913,61.657426829266
228,Bockåra,luoto,,,,,,Ahlainen,"Eloranta, Aino",1962,B,00000228_F.jpg,,,,,0,-1,-1,,KotusNA1,"\\tiedostot.ds.kotus.fi\digiwork2\nadigi\GRANON LOPULLISET DIGITOINNIT\0001_AHLAINEN\JPG\Ahlainen\B\kotus-201214_0001_AHLAINEN_00000228_F.jpg",214,,-1,-1
229,Boogabakka,mäki,114211,,15,52,,Ahlainen,"Miikkulainen, Raija",1986,B,00000229_F.jpg,,,,,1483,215444.0347900775,6849625.863890284,,KotusNA1,"\\tiedostot.ds.kotus.fi\digiwork2\nadigi\GRANON LOPULLISET DIGITOINNIT\0001_AHLAINEN\JPG\Ahlainen\B\kotus-201214_0001_AHLAINEN_00000229_F.jpg",215,,21.620201796051,61.673904921157
231,Bookabakka,mäki,,,,,,Ahlainen,"Sarmila, Hanna",1960,B,00000231_F.jpg,,,,,0,-1,-1,,KotusNA1,"\\tiedostot.ds.kotus.fi\digiwork2\nadigi\GRANON LOPULLISET DIGITOINNIT\0001_AHLAINEN\JPG\Ahlainen\B\kotus-201214_0001_AHLAINEN_00000231_F.jpg",216,,-1,-1
232,Bootpöksyt,karit,"114207 B",5,3,B,,Ahlainen,"Happonen, Raija",1969,B,00000232_F.jpg,,,,,1472,204725.2002743932,6848206.696761713,,KotusNA1,"\\tiedostot.ds.kotus.fi\digiwork2\nadigi\GRANON LOPULLISET DIGITOINNIT\0001_AHLAINEN\JPG\Ahlainen\B\kotus-201214_0001_AHLAINEN_00000232_F.jpg",217,,21.420961631909,61.65313601512
233,Borgargääly,luoto,,,,,,Ahlainen,"Eloranta, Aino",1962,B,00000233_F.jpg,,,,,0,-1,-1,,KotusNA1,"\\tiedostot.ds.kotus.fi\digiwork2\nadigi\GRANON LOPULLISET DIGITOINNIT\0001_AHLAINEN\JPG\Ahlainen\B\kotus-201214_0001_AHLAINEN_00000233_F.jpg",218,,-1,-1
234,Borgargääly,,,,,,,Ahlainen,"Eloranta, Aino",1962,B,00000234_F.jpg,J,,,,0,-1,-1,,KotusNA1,"\\tiedostot.ds.kotus.fi\digiwork2\nadigi\GRANON LOPULLISET DIGITOINNIT\0001_AHLAINEN\JPG\Ahlainen\B\kotus-201214_0001_AHLAINEN_00000234_F.jpg",219,218,-1,-1
235,Brander,tila,114207+114204,,07,48,,Ahlainen,"Miikkulainen, Raija",1974,B,00000235_F.jpg,,,,,1477,207447.2628995835,6845627.433134046,,KotusNA1,"\\tiedostot.ds.kotus.fi\digiwork2\nadigi\GRANON LOPULLISET DIGITOINNIT\0001_AHLAINEN\JPG\Ahlainen\B\kotus-201214_0001_AHLAINEN_00000235_F.jpg",220,,21.476233966238,61.632170722957
236,Brander,,,,,,,Ahlainen,"Miikkulainen, Raija",1974,B,00000236_F.jpg,J,,,,0,-1,-1,,KotusNA1,"\\tiedostot.ds.kotus.fi\digiwork2\nadigi\GRANON LOPULLISET DIGITOINNIT\0001_AHLAINEN\JPG\Ahlainen\B\kotus-201214_0001_AHLAINEN_00000236_F.jpg",221,220,-1,-1
237,Branderinpankki,törmä,114207+114204,,07,47,3,Ahlainen,"Miikkulainen, Raija",1974,B,00000237_F.jpg,,,,,1477,207883.0563626759,6844858.338063749,,KotusNA1,"\\tiedostot.ds.kotus.fi\digiwork2\nadigi\GRANON LOPULLISET DIGITOINNIT\0001_AHLAINEN\JPG\Ahlainen\B\kotus-201214_0001_AHLAINEN_00000237_F.jpg",222,,21.485644015976,61.625629586251
238,Breipoda,kari,114208+114205,,02,58,1,Ahlainen,"Miikkulainen, Raija",1986,B,00000238_F.jpg,,,,,1482,202730.5874346863,6855531.727192197,,KotusNA1,"\\tiedostot.ds.kotus.fi\digiwork2\nadigi\GRANON LOPULLISET DIGITOINNIT\0001_AHLAINEN\JPG\Ahlainen\B\kotus-201214_0001_AHLAINEN_00000238_F.jpg",223,,21.371548997143,61.717039167421
239,Bringari,kari,114208+114205,,02,55,1,Ahlainen,"Miikkulainen, Raija",1986,B,00000239_F.jpg,,,,,1482,202436.8136171566,6852540.826192482,,KotusNA1,"\\tiedostot.ds.kotus.fi\digiwork2\nadigi\GRANON LOPULLISET DIGITOINNIT\0001_AHLAINEN\JPG\Ahlainen\B\kotus-201214_0001_AHLAINEN_00000239_F.jpg",224,,21.370905061646,61.690091685712
240,Broholma,tila,V:3/16,1,7,E,1,Ahlainen,"Kleemola, Tarja",1969,B,00000240_F.jpg,,,,,1476,213168.4630958083,6848678.035546065,,KotusNA1,"\\tiedostot.ds.kotus.fi\digiwork2\nadigi\GRANON LOPULLISET DIGITOINNIT\0001_AHLAINEN\JPG\Ahlainen\B\kotus-201214_0001_AHLAINEN_00000240_F.jpg",225,,21.578895737315,61.663741727756
241,Bronholmanlato,lato,,1,9,H,1,Ahlainen,"Peltola, Satu-Liisa",1966,B,00000241_F.jpg,,,,,1466,214331.4289587,6845583.567880271,,KotusNA1,"\\tiedostot.ds.kotus.fi\digiwork2\nadigi\GRANON LOPULLISET DIGITOINNIT\0001_AHLAINEN\JPG\Ahlainen\B\kotus-201214_0001_AHLAINEN_00000241_F.jpg",226,,21.605595171526,61.636952141616
242,Brunholma,torppa,V:3/16,II,7,D,,Ahlainen,"Vasama, Marjatta",1963,B,00000242_F.jpg,,,,,1458,213209.0146694708,6849161.729584196,,KotusNA1,"\\tiedostot.ds.kotus.fi\digiwork2\nadigi\GRANON LOPULLISET DIGITOINNIT\0001_AHLAINEN\JPG\Ahlainen\B\kotus-201214_0001_AHLAINEN_00000242_F.jpg",227,,21.578898528702,61.668094702628
243,brunni,M,,,,,,Ahlainen,"Miikkulainen, Raija",1986,B,00000243_F.jpg,,,,,0,-1,-1,,KotusNA1,"\\tiedostot.ds.kotus.fi\digiwork2\nadigi\GRANON LOPULLISET DIGITOINNIT\0001_AHLAINEN\JPG\Ahlainen\B\kotus-201214_0001_AHLAINEN_00000243_F.jpg",228,,-1,-1
244,Brunnipelto,pelto,V:3/11,I,6,J,,Ahlainen,"Vasama, Marjatta",1963,B,00000244_F.jpg,,,,,1457,212647.1727696862,6854218.271775366,,KotusNA1,"\\tiedostot.ds.kotus.fi\digiwork2\nadigi\GRANON LOPULLISET DIGITOINNIT\0001_AHLAINEN\JPG\Ahlainen\B\kotus-201214_0001_AHLAINEN_00000244_F.jpg",229,,21.560364083573,61.712863202901
245,Bukkee,maa-alue,,1,6,C,,Ahlainen,"Kleemola, Tarja",1969,B,00000245_F.jpg,,,,,1476,212185.3587874773,6850317.956530807,,KotusNA1,"\\tiedostot.ds.kotus.fi\digiwork2\nadigi\GRANON LOPULLISET DIGITOINNIT\0001_AHLAINEN\JPG\Ahlainen\B\kotus-201214_0001_AHLAINEN_00000245_F.jpg",230,,21.557828626746,61.677661856648
246,Bukkoora,niemi,114208+114205,,05,52,3,Ahlainen,"Miikkulainen, Raija",1986,B,00000246_F.jpg,,,,,1482,205788.4341909443,6849751.94393793,,KotusNA1,"\\tiedostot.ds.kotus.fi\digiwork2\nadigi\GRANON LOPULLISET DIGITOINNIT\0001_AHLAINEN\JPG\Ahlainen\B\kotus-201214_0001_AHLAINEN_00000246_F.jpg",231,,21.438450459178,61.667757650816
247,Buksgääly,pelto,V:3/16,II,9,C,20,Ahlainen,"Vasama, Marjatta",1963,B,00000247_F.jpg,,,X,,1458,214951.3287979398,6850533.773693254,,KotusNA1,"\\tiedostot.ds.kotus.fi\digiwork2\nadigi\GRANON LOPULLISET DIGITOINNIT\0001_AHLAINEN\JPG\Ahlainen\B\kotus-201214_0001_AHLAINEN_00000247_F.jpg",232,,21.609517071533,61.681653835128
247,Buksgääly,pelto,V:3/16,II,9,C,22,Ahlainen,"Vasama, Marjatta",1963,B,00000247_F.jpg,,,X,,1458,215002.1815962159,6850437.935727104,,KotusNA1,"\\tiedostot.ds.kotus.fi\digiwork2\nadigi\GRANON LOPULLISET DIGITOINNIT\0001_AHLAINEN\JPG\Ahlainen\B\kotus-201214_0001_AHLAINEN_00000247_F.jpg",233,,21.610623436102,61.680835052224
247,Buksgääly,pelto,V:3/16,II,9,C,21,Ahlainen,"Vasama, Marjatta",1963,B,00000247_F.jpg,,,X,,1458,214865.2702161804,6850508.347293607,,KotusNA1,"\\tiedostot.ds.kotus.fi\digiwork2\nadigi\GRANON LOPULLISET DIGITOINNIT\0001_AHLAINEN\JPG\Ahlainen\B\kotus-201214_0001_AHLAINEN_00000247_F.jpg",234,,21.607937903358,61.681362693083
247,Buksgääly,pelto,V:3/16,II,9,C,19,Ahlainen,"Vasama, Marjatta",1963,B,00000247_F.jpg,,,X,,1458,214842.7776322254,6850245.281855148,,KotusNA1,"\\tiedostot.ds.kotus.fi\digiwork2\nadigi\GRANON LOPULLISET DIGITOINNIT\0001_AHLAINEN\JPG\Ahlainen\B\kotus-201214_0001_AHLAINEN_00000247_F.jpg",235,,21.607925975246,61.678994904475
247,Buksgääly,pelto,V:3/16,II,9,C,,Ahlainen,"Vasama, Marjatta",1963,B,00000247_F.jpg,,,X,,1458,215295.1123239328,6850021.411495527,,KotusNA1,"\\tiedostot.ds.kotus.fi\digiwork2\nadigi\GRANON LOPULLISET DIGITOINNIT\0001_AHLAINEN\JPG\Ahlainen\B\kotus-201214_0001_AHLAINEN_00000247_F.jpg",236,,21.616783879022,61.677329727888
248,Buksujuovanniittu,niitty,,II,7,D,10,Ahlainen,"Vasama, Marjatta",1963,B,00000248_F.jpg,,,X,,1458,212902.547789096,6849574.416081195,,KotusNA1,"\\tiedostot.ds.kotus.fi\digiwork2\nadigi\GRANON LOPULLISET DIGITOINNIT\0001_AHLAINEN\JPG\Ahlainen\B\kotus-201214_0001_AHLAINEN_00000248_F.jpg",237,,21.572487262099,61.671553880029
248,Buksujuopa,joki,V:3/16,II,6-7,CD,,Ahlainen,"Vasama, Marjatta",1963,B,00000248_F.jpg,,,X,,1458,212280.1219428898,6850249.355057145,,KotusNA1,"\\tiedostot.ds.kotus.fi\digiwork2\nadigi\GRANON LOPULLISET DIGITOINNIT\0001_AHLAINEN\JPG\Ahlainen\B\kotus-201214_0001_AHLAINEN_00000248_F.jpg",238,,21.559719083646,61.67711980664
249,Bukkoora,luoto,,,,,,Ahlainen,"Eloranta, Aino",1962,B,00000249_F.jpg,,,,,0,-1,-1,,KotusNA1,"\\tiedostot.ds.kotus.fi\digiwork2\nadigi\GRANON LOPULLISET DIGITOINNIT\0001_AHLAINEN\JPG\Ahlainen\B\kotus-201214_0001_AHLAINEN_00000249_F.jpg",239,,-1,-1
250,Bussö,tila,114211,,13,53,1,Ahlainen,"Miikkulainen, Raija",1986,B,00000250_F.jpg,,,,,1483,213400.3922367961,6850713.746946858,,KotusNA1,"\\tiedostot.ds.kotus.fi\digiwork2\nadigi\GRANON LOPULLISET DIGITOINNIT\0001_AHLAINEN\JPG\Ahlainen\B\kotus-201214_0001_AHLAINEN_00000250_F.jpg",240,,21.580059663232,61.682107710346
251,Busö,talo,V:3/16,II,7,B,,Ahlainen,"Vasama, Marjatta",1962,B,00000251_F.jpg,,,,,1458,213362.6092241039,6851185.497026292,,KotusNA1,"\\tiedostot.ds.kotus.fi\digiwork2\nadigi\GRANON LOPULLISET DIGITOINNIT\0001_AHLAINEN\JPG\Ahlainen\B\kotus-201214_0001_AHLAINEN_00000251_F.jpg",241,,21.578607495652,61.686295456389
252,Busö,,,,,,,Ahlainen,"Vasama, Marjatta",1962,B,00000252_F.jpg,J,,,,0,-1,-1,,KotusNA1,"\\tiedostot.ds.kotus.fi\digiwork2\nadigi\GRANON LOPULLISET DIGITOINNIT\0001_AHLAINEN\JPG\Ahlainen\B\kotus-201214_0001_AHLAINEN_00000252_F.jpg",242,241,-1,-1
253,Busönniittu,pelto,V:3/11,I,6,J,11,Ahlainen,"Vasama, Marjatta",1963,B,00000253_F.jpg,,,,,1457,212943.1192645593,6854485.701655435,,KotusNA1,"\\tiedostot.ds.kotus.fi\digiwork2\nadigi\GRANON LOPULLISET DIGITOINNIT\0001_AHLAINEN\JPG\Ahlainen\B\kotus-201214_0001_AHLAINEN_00000253_F.jpg",243,,21.565514725408,61.715474775402
255,Busönsahi,joki,V:3/16,II,7,B,,Ahlainen,"Vasama, Marjatta",1963,B,00000255_F.jpg,,,,,1458,213362.6092241039,6851185.497026292,,KotusNA1,"\\tiedostot.ds.kotus.fi\digiwork2\nadigi\GRANON LOPULLISET DIGITOINNIT\0001_AHLAINEN\JPG\Ahlainen\B\kotus-201214_0001_AHLAINEN_00000255_F.jpg",244,,21.578607495652,61.686295456389
256,Busönsahi,,V:3/16,II,7,B,,Ahlainen,"Vasama, Marjatta",1963,B,00000256_F.jpg,,,,,1458,213362.6092241039,6851185.497026292,,KotusNA1,"\\tiedostot.ds.kotus.fi\digiwork2\nadigi\GRANON LOPULLISET DIGITOINNIT\0001_AHLAINEN\JPG\Ahlainen\B\kotus-201214_0001_AHLAINEN_00000256_F.jpg",245,,21.578607495652,61.686295456389
257,Buurikanaali,salmi,V:3/11,I,5,J,6,Ahlainen,"Vasama, Marjatta",1963,B,00000257_F.jpg,,,,,1457,211699.9598572318,6854201.367659028,,KotusNA1,"\\tiedostot.ds.kotus.fi\digiwork2\nadigi\GRANON LOPULLISET DIGITOINNIT\0001_AHLAINEN\JPG\Ahlainen\B\kotus-201214_0001_AHLAINEN_00000257_F.jpg",246,,21.542556001914,61.71200117462
258,Buussoo,tila,114211,,13,53,1,Ahlainen,"Miikkulainen, Raija",1986,B,00000258_F.jpg,,,,,1483,213397.3181826529,6850709.135865614,,KotusNA1,"\\tiedostot.ds.kotus.fi\digiwork2\nadigi\GRANON LOPULLISET DIGITOINNIT\0001_AHLAINEN\JPG\Ahlainen\B\kotus-201214_0001_AHLAINEN_00000258_F.jpg",247,,21.580009081735,61.682064207165
260,Buussoonjuopa,joenhaara,114211,,14,53,3,Ahlainen,"Miikkulainen, Raija",1986,B,00000260_F.jpg,,,,,1483,214019.0456327439,6850450.915319704,,KotusNA1,"\\tiedostot.ds.kotus.fi\digiwork2\nadigi\GRANON LOPULLISET DIGITOINNIT\0001_AHLAINEN\JPG\Ahlainen\B\kotus-201214_0001_AHLAINEN_00000260_F.jpg",248,,21.592109495717,61.680220077884
262,Bäckström,asumus,114207+114204,,08,47,1,Ahlainen,"Miikkulainen, Raija",1974,B,00000262_F.jpg,,,,,1477,208611.9658418552,6844911.052517477,,KotusNA1,"\\tiedostot.ds.kotus.fi\digiwork2\nadigi\GRANON LOPULLISET DIGITOINNIT\0001_AHLAINEN\JPG\Ahlainen\B\kotus-201214_0001_AHLAINEN_00000262_F.jpg",249,,21.499244911348,61.626653199066
263,Bäckström,asumus,114207+114204,,09,49,9,Ahlainen,"Miikkulainen, Raija",1974,B,00000263_F.jpg,,,,,1477,209191.5663763542,6846262.079952588,,KotusNA1,"\\tiedostot.ds.kotus.fi\digiwork2\nadigi\GRANON LOPULLISET DIGITOINNIT\0001_AHLAINEN\JPG\Ahlainen\B\kotus-201214_0001_AHLAINEN_00000263_F.jpg",250,,21.507980989504,61.639164203479
264,bäkki,M,,,,,,Ahlainen,"Miikkulainen, Raija",1986,B,00000264_F.jpg,,,,,0,-1,-1,,KotusNA1,"\\tiedostot.ds.kotus.fi\digiwork2\nadigi\GRANON LOPULLISET DIGITOINNIT\0001_AHLAINEN\JPG\Ahlainen\B\kotus-201214_0001_AHLAINEN_00000264_F.jpg",251,,-1,-1
265,Bäkki,joki,,2,5,H,1,Ahlainen,"Peltola, Satu-Liisa",1966,B,00000265_F.jpg,,,,,1467,221164.3847713374,6844252.94470416,,KotusNA1,"\\tiedostot.ds.kotus.fi\digiwork2\nadigi\GRANON LOPULLISET DIGITOINNIT\0001_AHLAINEN\JPG\Ahlainen\B\kotus-201214_0001_AHLAINEN_00000265_F.jpg",252,,21.736000063624,61.630071765698
267,Bärgääly,pelto,V:3/16,II,8,B,12,Ahlainen,"Vasama, Marjatta",1963,B,00000267_F.jpg,,,X,,1458,214416.3964773662,6850740.118699998,,KotusNA1,"\\tiedostot.ds.kotus.fi\digiwork2\nadigi\GRANON LOPULLISET DIGITOINNIT\0001_AHLAINEN\JPG\Ahlainen\B\kotus-201214_0001_AHLAINEN_00000267_F.jpg",253,,21.599131120121,61.683100464363
267,Bärgääly,pelto,V:3/16,II,8,B,4,Ahlainen,"Vasama, Marjatta",1963,B,00000267_F.jpg,,,X,,1458,214782.1454497732,6850675.574765167,,KotusNA1,"\\tiedostot.ds.kotus.fi\digiwork2\nadigi\GRANON LOPULLISET DIGITOINNIT\0001_AHLAINEN\JPG\Ahlainen\B\kotus-201214_0001_AHLAINEN_00000267_F.jpg",254,,21.606112718004,61.682795505868
268,Daali,tila,114211,,17,54,2,Ahlainen,"Miikkulainen, Raija",1986,D,00000268_F.jpg,,,,,1483,217493.495327752,6851795.81402784,,KotusNA1,"\\tiedostot.ds.kotus.fi\digiwork2\nadigi\GRANON LOPULLISET DIGITOINNIT\0001_AHLAINEN\JPG\Ahlainen\D\kotus-201214_0001_AHLAINEN_00000268_F.jpg",255,,21.655387454657,61.694812883551
270,Dahlman,asumus,114207+114204,,07,49,,Ahlainen,"Miikkulainen, Raija",1974,D,00000270_F.jpg,,,,,1477,207447.258412566,6846627.031871431,,KotusNA1,"\\tiedostot.ds.kotus.fi\digiwork2\nadigi\GRANON LOPULLISET DIGITOINNIT\0001_AHLAINEN\JPG\Ahlainen\D\kotus-201214_0001_AHLAINEN_00000270_F.jpg",256,,21.474636120374,61.64110248045
271,Danskiviiki,lahti,V:2/20,V,10,D,4,Ahlainen,"Vasama, Marjatta",1963,D,00000271_F.jpg,,,,,1462,206024.1940019127,6849667.39644528,,KotusNA1,"\\tiedostot.ds.kotus.fi\digiwork2\nadigi\GRANON LOPULLISET DIGITOINNIT\0001_AHLAINEN\JPG\Ahlainen\D\kotus-201214_0001_AHLAINEN_00000271_F.jpg",257,,21.443018400885,61.667182705872
272,deeli,M,,,,,,Ahlainen,"Miikkulainen, Raija",1986,D,00000272_F.jpg,,,,,0,-1,-1,,KotusNA1,"\\tiedostot.ds.kotus.fi\digiwork2\nadigi\GRANON LOPULLISET DIGITOINNIT\0001_AHLAINEN\JPG\Ahlainen\D\kotus-201214_0001_AHLAINEN_00000272_F.jpg",258,,-1,-1
273,Deerviiki,pelto,114211,,14,53,5,Ahlainen,"Miikkulainen, Raija",1986,D,00000273_F.jpg,,,,,1483,214733.7632207216,6850304.897750794,,KotusNA1,"\\tiedostot.ds.kotus.fi\digiwork2\nadigi\GRANON LOPULLISET DIGITOINNIT\0001_AHLAINEN\JPG\Ahlainen\D\kotus-201214_0001_AHLAINEN_00000273_F.jpg",259,,21.605782193398,61.67944673604
274,Derviiki,pelto,114211,,14,53,5,Ahlainen,"Miikkulainen, Raija",1986,D,00000274_F.jpg,,,,,1483,214732.2261936512,6850306.434777864,,KotusNA1,"\\tiedostot.ds.kotus.fi\digiwork2\nadigi\GRANON LOPULLISET DIGITOINNIT\0001_AHLAINEN\JPG\Ahlainen\D\kotus-201214_0001_AHLAINEN_00000274_F.jpg",260,,21.605750878107,61.679459330949
275,Dersten,talo,V:3/16,II,9,C,,Ahlainen,"Vasama, Marjatta",1963,D,00000275_F.jpg,,,,,1458,215295.1123239328,6850021.411495527,,KotusNA1,"\\tiedostot.ds.kotus.fi\digiwork2\nadigi\GRANON LOPULLISET DIGITOINNIT\0001_AHLAINEN\JPG\Ahlainen\D\kotus-201214_0001_AHLAINEN_00000275_F.jpg",261,,21.616783879022,61.677329727888
276,Deerviiki,pelto,V:3/16,II,8,C,9,Ahlainen,"Vasama, Marjatta",1963,D,00000276_F.jpg,,,,,1458,214762.2834973777,6850357.220471836,,KotusNA1,"\\tiedostot.ds.kotus.fi\digiwork2\nadigi\GRANON LOPULLISET DIGITOINNIT\0001_AHLAINEN\JPG\Ahlainen\D\kotus-201214_0001_AHLAINEN_00000276_F.jpg",262,,21.60623686494,61.679935543457
277,Deerenki,maa,V:3/17,III,4-5,H,,Ahlainen,"Vasama, Marjatta",1963,D,00000277_F.jpg,,,,,1459,220360.9460204816,6844583.372330037,,KotusNA1,"\\tiedostot.ds.kotus.fi\digiwork2\nadigi\GRANON LOPULLISET DIGITOINNIT\0001_AHLAINEN\JPG\Ahlainen\D\kotus-201214_0001_AHLAINEN_00000277_F.jpg",263,,21.720403661659,61.632442377856
278,Diuksundi,salmi,114208+114205,,11,57,1,Ahlainen,"Miikkulainen, Raija",1986,D,00000278_F.jpg,,,,,1482,211597.3585418247,6854294.411777961,,KotusNA1,"\\tiedostot.ds.kotus.fi\digiwork2\nadigi\GRANON LOPULLISET DIGITOINNIT\0001_AHLAINEN\JPG\Ahlainen\D\kotus-201214_0001_AHLAINEN_00000278_F.jpg",264,,21.540476771193,61.712755487622
279,Djuupsundi,salmi,V:3/11,I,5,J,4,Ahlainen,"Vasama, Marjatta",1963,D,00000279_F.jpg,,,,,1457,211617.4527500745,6854313.492702186,,KotusNA1,"\\tiedostot.ds.kotus.fi\digiwork2\nadigi\GRANON LOPULLISET DIGITOINNIT\0001_AHLAINEN\JPG\Ahlainen\D\kotus-201214_0001_AHLAINEN_00000279_F.jpg",265,,21.540824881772,61.712941111403
280,Djupvik,tila,114208+114205,,12,59,,Ahlainen,"Miikkulainen, Raija",1986,D,00000280_F.jpg,,,,,1482,212445.2074343776,6856623.041533135,,KotusNA1,"\\tiedostot.ds.kotus.fi\digiwork2\nadigi\GRANON LOPULLISET DIGITOINNIT\0001_AHLAINEN\JPG\Ahlainen\D\kotus-201214_0001_AHLAINEN_00000280_F.jpg",266,,21.552758652178,61.734201834553
281,"Dorofejeffin kauppa",kauppa,114211,,15,52,2,Ahlainen,"Miikkulainen, Raija",1986,D,00000281_F.jpg,,,,,1483,215443.1012138636,6849710.06827541,,KotusNA1,"\\tiedostot.ds.kotus.fi\digiwork2\nadigi\GRANON LOPULLISET DIGITOINNIT\0001_AHLAINEN\JPG\Ahlainen\D\kotus-201214_0001_AHLAINEN_00000281_F.jpg",267,,21.620052953708,61.674656802093
282,Dorofejeffinkuja,tie,V:3/16,II,9,C,13,Ahlainen,"Vasama, Marjatta",1963,D,00000282_F.jpg,,,,,1458,-1,-1,x,KotusNA1,"\\tiedostot.ds.kotus.fi\digiwork2\nadigi\GRANON LOPULLISET DIGITOINNIT\0001_AHLAINEN\JPG\Ahlainen\D\kotus-201214_0001_AHLAINEN_00000282_F.jpg",268,,-1,-1
283,Dragsandi,pelto,114211,,13,54,,Ahlainen,"Miikkulainen, Raija",1986,D,00000283_F.jpg,,,,,1483,213444.8284255668,6851625.052379927,,KotusNA1,"\\tiedostot.ds.kotus.fi\digiwork2\nadigi\GRANON LOPULLISET DIGITOINNIT\0001_AHLAINEN\JPG\Ahlainen\D\kotus-201214_0001_AHLAINEN_00000283_F.jpg",269,,21.579463501916,61.690285074207
285,Dragsandikuja,alue,V:3/16,II,8,B,2,Ahlainen,"Vasama, Marjatta",1963,D,00000285_F.jpg,,,X,,1458,214239.9939590756,6850813.148719027,,KotusNA1,"\\tiedostot.ds.kotus.fi\digiwork2\nadigi\GRANON LOPULLISET DIGITOINNIT\0001_AHLAINEN\JPG\Ahlainen\D\kotus-201214_0001_AHLAINEN_00000285_F.jpg",270,,21.595698170934,61.68362188446
285,Dragsandisilta,alue,V:3/16,II,8,B,2,Ahlainen,"Vasama, Marjatta",1963,D,00000285_F.jpg,,,X,,1458,214241.6190188727,6850813.148719027,,KotusNA1,"\\tiedostot.ds.kotus.fi\digiwork2\nadigi\GRANON LOPULLISET DIGITOINNIT\0001_AHLAINEN\JPG\Ahlainen\D\kotus-201214_0001_AHLAINEN_00000285_F.jpg",271,,21.595728742473,61.683623094011
285,Dragsandi,alue,V:3/16,II,8,BC,,Ahlainen,"Vasama, Marjatta",1963,D,00000285_F.jpg,,,X,,1458,214366.9808222684,6851112.243756749,,KotusNA1,"\\tiedostot.ds.kotus.fi\digiwork2\nadigi\GRANON LOPULLISET DIGITOINNIT\0001_AHLAINEN\JPG\Ahlainen\D\kotus-201214_0001_AHLAINEN_00000285_F.jpg",272,,21.597618669499,61.686389426796
285,Dragsandi,alue,V:3/16,II,8,"B,C",3,Ahlainen,"Vasama, Marjatta",1963,D,00000285_F.jpg,,,X,,1458,-1,-1,x,KotusNA1,"\\tiedostot.ds.kotus.fi\digiwork2\nadigi\GRANON LOPULLISET DIGITOINNIT\0001_AHLAINEN\JPG\Ahlainen\D\kotus-201214_0001_AHLAINEN_00000285_F.jpg",273,,-1,-1
286,Dragsvik,tila,,,,,,Ahlainen,"Peltola, Satu-Liisa",1966,D,00000286_F.jpg,,,,,0,-1,-1,,KotusNA1,"\\tiedostot.ds.kotus.fi\digiwork2\nadigi\GRANON LOPULLISET DIGITOINNIT\0001_AHLAINEN\JPG\Ahlainen\D\kotus-201214_0001_AHLAINEN_00000286_F.jpg",274,,-1,-1
287,Dravassa,pelto,114211,,16,52,3,Ahlainen,"Miikkulainen, Raija",1986,D,00000287_F.jpg,,,,,1483,216760.3334139902,6849680.864766971,,KotusNA1,"\\tiedostot.ds.kotus.fi\digiwork2\nadigi\GRANON LOPULLISET DIGITOINNIT\0001_AHLAINEN\JPG\Ahlainen\D\kotus-201214_0001_AHLAINEN_00000287_F.jpg",275,,21.644873496171,61.675369497662
289,Dukaatinnokka,kärki,114207+114204,,08-09,49,,Ahlainen,"Miikkulainen, Raija",1974,D,00000289_F.jpg,,,,,1477,208446.8571503154,6846627.036360662,,KotusNA1,"\\tiedostot.ds.kotus.fi\digiwork2\nadigi\GRANON LOPULLISET DIGITOINNIT\0001_AHLAINEN\JPG\Ahlainen\D\kotus-201214_0001_AHLAINEN_00000289_F.jpg",276,,21.493412036345,61.641861566196
290,Dukaatti,kari,114207+114204,,09-08,49,,Ahlainen,"Miikkulainen, Raija",1974,D,00000290_F.jpg,,,,,1477,209446.4558844352,6846627.040849135,,KotusNA1,"\\tiedostot.ds.kotus.fi\digiwork2\nadigi\GRANON LOPULLISET DIGITOINNIT\0001_AHLAINEN\JPG\Ahlainen\D\kotus-201214_0001_AHLAINEN_00000290_F.jpg",277,,21.512189005081,61.642618081388
291,Eekinkallio,kari,114208+114205,,11,55,6,Ahlainen,"Miikkulainen, Raija",1986,E,00000291_F.jpg,,,,,1482,211296.8901472953,6852876.342718597,,KotusNA1,"\\tiedostot.ds.kotus.fi\digiwork2\nadigi\GRANON LOPULLISET DIGITOINNIT\0001_AHLAINEN\JPG\Ahlainen\E\kotus-201214_0001_AHLAINEN_00000291_F.jpg",278,,21.537067838375,61.699857292991
292,Eekinkallio,saari,V:3/16,II,5,A,1,Ahlainen,"Vasama, Marjatta",1962,E,00000292_F.jpg,,,,,1458,211277.1204127308,6852801.284318004,,KotusNA1,"\\tiedostot.ds.kotus.fi\digiwork2\nadigi\GRANON LOPULLISET DIGITOINNIT\0001_AHLAINEN\JPG\Ahlainen\E\kotus-201214_0001_AHLAINEN_00000292_F.jpg",279,,21.536814717723,61.699171680545
293,Eenholma,kari,114208+114205,,09,56,15,Ahlainen,"Miikkulainen, Raija",1986,E,00000293_F.jpg,,,,,1482,209755.562108311,6853608.41446265,,KotusNA1,"\\tiedostot.ds.kotus.fi\digiwork2\nadigi\GRANON LOPULLISET DIGITOINNIT\0001_AHLAINEN\JPG\Ahlainen\E\kotus-201214_0001_AHLAINEN_00000293_F.jpg",280,,21.506893792416,61.705236020022
294,Eenholma,saari,114208+114205,,04,55,2,Ahlainen,"Miikkulainen, Raija",1986,E,00000294_F.jpg,,,,,1482,204753.925056729,6852598.320813539,,KotusNA1,"\\tiedostot.ds.kotus.fi\digiwork2\nadigi\GRANON LOPULLISET DIGITOINNIT\0001_AHLAINEN\JPG\Ahlainen\E\kotus-201214_0001_AHLAINEN_00000294_F.jpg",281,,21.41439823016,61.692394721621
295,Eenholma,saari,V:3/11,I,3,K,,Ahlainen,"Vasama, Marjatta",1962,E,00000295_F.jpg,,,,,1457,209530.353780718,6853482.762479879,,KotusNA1,"\\tiedostot.ds.kotus.fi\digiwork2\nadigi\GRANON LOPULLISET DIGITOINNIT\0001_AHLAINEN\JPG\Ahlainen\E\kotus-201214_0001_AHLAINEN_00000295_F.jpg",282,,21.502855155705,61.703942764412
296,Eenholma,saari,V:2/20,V,9,AB,,Ahlainen,"Vasama, Marjatta",1963,E,00000296_F.jpg,,,,,1462,204855.7929432077,6853021.528333891,,KotusNA1,"\\tiedostot.ds.kotus.fi\digiwork2\nadigi\GRANON LOPULLISET DIGITOINNIT\0001_AHLAINEN\JPG\Ahlainen\E\kotus-201214_0001_AHLAINEN_00000296_F.jpg",283,,21.415629228704,61.69625416386
297,Eenholmankarit,saariryhmä,V:2/20,V,9,A,4,Ahlainen,"Vasama, Marjatta",1963,E,00000297_F.jpg,,,,,1462,204910.0841207813,6853405.073131379,,KotusNA1,"\\tiedostot.ds.kotus.fi\digiwork2\nadigi\GRANON LOPULLISET DIGITOINNIT\0001_AHLAINEN\JPG\Ahlainen\E\kotus-201214_0001_AHLAINEN_00000297_F.jpg",284,,21.416029509782,61.699722647695
298,Eenilä,torppa,,1,17,50,,Ahlainen,"Norrbacka, Hilkka",1977,E,00000298_F.jpg,,,,,1478,217443.2411497954,6847626.675430311,,KotusNA1,"\\tiedostot.ds.kotus.fi\digiwork2\nadigi\GRANON LOPULLISET DIGITOINNIT\0001_AHLAINEN\JPG\Ahlainen\E\kotus-201214_0001_AHLAINEN_00000298_F.jpg",285,,21.660897035386,61.657512127131
299,Eljaksenkarit,saaret,,1,8,G,2,Ahlainen,"Peltola, Satu-Liisa",1966,E,00000299_F.jpg,,,,,1466,213839.6749363012,6845783.745237559,,KotusNA1,"\\tiedostot.ds.kotus.fi\digiwork2\nadigi\GRANON LOPULLISET DIGITOINNIT\0001_AHLAINEN\JPG\Ahlainen\E\kotus-201214_0001_AHLAINEN_00000299_F.jpg",286,,21.596044931035,61.638375652226
300,Eevanniitut,pelto,114211,,18,54,5,Ahlainen,"Miikkulainen, Raija",1986,E,00000300_F.jpg,,,,,1483,218327.3325139782,6851398.492532199,,KotusNA1,"\\tiedostot.ds.kotus.fi\digiwork2\nadigi\GRANON LOPULLISET DIGITOINNIT\0001_AHLAINEN\JPG\Ahlainen\E\kotus-201214_0001_AHLAINEN_00000300_F.jpg",287,,21.671695722694,61.691874522184
302,Eligjär,niitty,114211,,14,55,8,Ahlainen,"Miikkulainen, Raija",1986,E,00000302_F.jpg,,,,,1483,214003.2911060316,6852664.234310069,,KotusNA1,"\\tiedostot.ds.kotus.fi\digiwork2\nadigi\GRANON LOPULLISET DIGITOINNIT\0001_AHLAINEN\JPG\Ahlainen\E\kotus-201214_0001_AHLAINEN_00000302_F.jpg",288,,21.588340827062,61.6999887492
303,Elikiernu,niitty,114211,,14,55,8,Ahlainen,"Miikkulainen, Raija",1986,E,00000303_F.jpg,,,,,1483,214006.3651601719,6852659.623228855,,KotusNA1,"\\tiedostot.ds.kotus.fi\digiwork2\nadigi\GRANON LOPULLISET DIGITOINNIT\0001_AHLAINEN\JPG\Ahlainen\E\kotus-201214_0001_AHLAINEN_00000303_F.jpg",289,,21.588405927044,61.699949831696
305,Elikiernunkallio,kallio,114211,,13,55,,Ahlainen,"Miikkulainen, Raija",1986,E,00000305_F.jpg,,,,,1483,213444.8239650355,6852624.651098829,,KotusNA1,"\\tiedostot.ds.kotus.fi\digiwork2\nadigi\GRANON LOPULLISET DIGITOINNIT\0001_AHLAINEN\JPG\Ahlainen\E\kotus-201214_0001_AHLAINEN_00000305_F.jpg",290,,21.5778916181,61.699218298001
306,Elikiernunneva,suo,114211,,14,55,8,Ahlainen,"Miikkulainen, Raija",1986,E,00000306_F.jpg,,,,,1483,214012.5132684562,6852661.16025596,,KotusNA1,"\\tiedostot.ds.kotus.fi\digiwork2\nadigi\GRANON LOPULLISET DIGITOINNIT\0001_AHLAINEN\JPG\Ahlainen\E\kotus-201214_0001_AHLAINEN_00000306_F.jpg",291,,21.588519235434,61.699968150954
307,Elisund,pelto,114211,,16,54,11,Ahlainen,"Miikkulainen, Raija",1986,E,00000307_F.jpg,,,,,1483,216019.4863660898,6851253.243463085,,KotusNA1,"\\tiedostot.ds.kotus.fi\digiwork2\nadigi\GRANON LOPULLISET DIGITOINNIT\0001_AHLAINEN\JPG\Ahlainen\E\kotus-201214_0001_AHLAINEN_00000307_F.jpg",292,,21.628491210055,61.688875676725
308,Elomaa,tila,114211,,14,57,,Ahlainen,"Miikkulainen, Raija",1986,E,00000308_F.jpg,,,,,1483,214444.4137764128,6854623.852993341,,KotusNA1,"\\tiedostot.ds.kotus.fi\digiwork2\nadigi\GRANON LOPULLISET DIGITOINNIT\0001_AHLAINEN\JPG\Ahlainen\E\kotus-201214_0001_AHLAINEN_00000308_F.jpg",293,,21.59356997757,61.71783051267
309,Elomaa,tila,114211,,13,55,,Ahlainen,"Miikkulainen, Raija",1986,E,00000309_F.jpg,,,,,1483,213444.8239650355,6852624.651098829,,KotusNA1,"\\tiedostot.ds.kotus.fi\digiwork2\nadigi\GRANON LOPULLISET DIGITOINNIT\0001_AHLAINEN\JPG\Ahlainen\E\kotus-201214_0001_AHLAINEN_00000309_F.jpg",294,,21.5778916181,61.699218298001
310,Elomaa,talo,V:3/16,II,7,A,,Ahlainen,"Vasama, Marjatta",1963,E,00000310_F.jpg,,,,,1458,213439.2445955423,6852197.050665975,,KotusNA1,"\\tiedostot.ds.kotus.fi\digiwork2\nadigi\GRANON LOPULLISET DIGITOINNIT\0001_AHLAINEN\JPG\Ahlainen\E\kotus-201214_0001_AHLAINEN_00000310_F.jpg",295,,21.578459118365,61.695392750628
311,Elomaa,talo,V:3/11,I,8,J,,Ahlainen,"Vasama, Marjatta",1963,E,00000311_F.jpg,,,,,1457,214679.6614646973,6854051.457310071,,KotusNA1,"\\tiedostot.ds.kotus.fi\digiwork2\nadigi\GRANON LOPULLISET DIGITOINNIT\0001_AHLAINEN\JPG\Ahlainen\E\kotus-201214_0001_AHLAINEN_00000311_F.jpg",296,,21.598898060584,61.712890118343
312,Elomaa,talo,V:3/16,II,9,C,23,Ahlainen,"Vasama, Marjatta",1963,E,00000312_F.jpg,,,,,1458,214886.8361519757,6850154.621947566,,KotusNA1,"\\tiedostot.ds.kotus.fi\digiwork2\nadigi\GRANON LOPULLISET DIGITOINNIT\0001_AHLAINEN\JPG\Ahlainen\E\kotus-201214_0001_AHLAINEN_00000312_F.jpg",297,,21.608896393158,61.678217366992
313,Elomaa,talo,,2,1,I,5,Ahlainen,"Peltola, Satu-Liisa",1966,E,00000313_F.jpg,,,,,1467,216958.9559730545,6844015.500505704,,KotusNA1,"\\tiedostot.ds.kotus.fi\digiwork2\nadigi\GRANON LOPULLISET DIGITOINNIT\0001_AHLAINEN\JPG\Ahlainen\E\kotus-201214_0001_AHLAINEN_00000313_F.jpg",298,,21.657379729053,61.62487910538
314,Elomaa,asumus,114207+114204,,09,49,10,Ahlainen,"Miikkulainen, Raija",1974,E,00000314_F.jpg,,,,,1477,209021.1686401281,6846426.09103064,,KotusNA1,"\\tiedostot.ds.kotus.fi\digiwork2\nadigi\GRANON LOPULLISET DIGITOINNIT\0001_AHLAINEN\JPG\Ahlainen\E\kotus-201214_0001_AHLAINEN_00000314_F.jpg",299,,21.504519648389,61.640500904792
315,Elomaankorpi,pelto,114211,,14,57,22,Ahlainen,"Miikkulainen, Raija",1986,E,00000315_F.jpg,,,,,1483,214124.3319884464,6854335.366999789,,KotusNA1,"\\tiedostot.ds.kotus.fi\digiwork2\nadigi\GRANON LOPULLISET DIGITOINNIT\0001_AHLAINEN\JPG\Ahlainen\E\kotus-201214_0001_AHLAINEN_00000315_F.jpg",300,,21.587995096616,61.715013794167
317,Elomaannokka,niemi,114211,,14,57,4,Ahlainen,"Miikkulainen, Raija",1986,E,00000317_F.jpg,,,,,1483,214611.5695699852,6854466.014303626,,KotusNA1,"\\tiedostot.ds.kotus.fi\digiwork2\nadigi\GRANON LOPULLISET DIGITOINNIT\0001_AHLAINEN\JPG\Ahlainen\E\kotus-201214_0001_AHLAINEN_00000317_F.jpg",301,,21.596965687264,61.716544368518
318,Eloranta,tila,114211,,16,60,,Ahlainen,"Miikkulainen, Raija",1986,E,00000318_F.jpg,,,,,1483,216443.5978771508,6857622.65803149,,KotusNA1,"\\tiedostot.ds.kotus.fi\digiwork2\nadigi\GRANON LOPULLISET DIGITOINNIT\0001_AHLAINEN\JPG\Ahlainen\E\kotus-201214_0001_AHLAINEN_00000318_F.jpg",302,,21.626544070014,61.746116258272
320,Eloranta,mökki,,3,4,A,9,Ahlainen,"Peltola, Satu-Liisa",1966,E,00000320_F.jpg,,,,,1468,220148.6327174188,6840691.935469706,,KotusNA1,"\\tiedostot.ds.kotus.fi\digiwork2\nadigi\GRANON LOPULLISET DIGITOINNIT\0001_AHLAINEN\JPG\Ahlainen\E\kotus-201214_0001_AHLAINEN_00000320_F.jpg",303,,21.722356143868,61.597502545128
321,Eloskansarat,pelto,V:3/16,II,6,D,4,Ahlainen,"Vasama, Marjatta",1963,E,00000321_F.jpg,,,,,1458,212628.7250288458,6849020.90292705,,KotusNA1,"\\tiedostot.ds.kotus.fi\digiwork2\nadigi\GRANON LOPULLISET DIGITOINNIT\0001_AHLAINEN\JPG\Ahlainen\E\kotus-201214_0001_AHLAINEN_00000321_F.jpg",304,,21.568209366121,61.666402550551
322,Engelsmanni,kari,114208+114205,,09,56,11,Ahlainen,"Miikkulainen, Raija",1986,E,00000322_F.jpg,,,,,1482,209368.0642056363,6853211.465388075,,KotusNA1,"\\tiedostot.ds.kotus.fi\digiwork2\nadigi\GRANON LOPULLISET DIGITOINNIT\0001_AHLAINEN\JPG\Ahlainen\E\kotus-201214_0001_AHLAINEN_00000322_F.jpg",305,,21.500233460119,61.701395633788
323,Engelsmanni,saari,V:3/11,I,3,K,1,Ahlainen,"Vasama, Marjatta",1962,E,00000323_F.jpg,,,,,1457,209413.9726264309,6853182.07963835,,KotusNA1,"\\tiedostot.ds.kotus.fi\digiwork2\nadigi\GRANON LOPULLISET DIGITOINNIT\0001_AHLAINEN\JPG\Ahlainen\E\kotus-201214_0001_AHLAINEN_00000323_F.jpg",306,,21.501144354468,61.701167828092
324,Engelsmanni,,,,,,,Ahlainen,"Vasama, Marjatta",1962,E,00000324_F.jpg,J,,,,0,-1,-1,,KotusNA1,"\\tiedostot.ds.kotus.fi\digiwork2\nadigi\GRANON LOPULLISET DIGITOINNIT\0001_AHLAINEN\JPG\Ahlainen\E\kotus-201214_0001_AHLAINEN_00000324_F.jpg",307,306,-1,-1
325,enki,M,,,,,,Ahlainen,"Miikkulainen, Raija",1986,E,00000325_F.jpg,,,,,0,-1,-1,,KotusNA1,"\\tiedostot.ds.kotus.fi\digiwork2\nadigi\GRANON LOPULLISET DIGITOINNIT\0001_AHLAINEN\JPG\Ahlainen\E\kotus-201214_0001_AHLAINEN_00000325_F.jpg",308,,-1,-1
326,Ensholma,saari,V:2/20,V,9,AB,,Ahlainen,"Vasama, Marjatta",1963,E,00000326_F.jpg,,,,,1462,204855.7929432077,6853021.528333891,,KotusNA1,"\\tiedostot.ds.kotus.fi\digiwork2\nadigi\GRANON LOPULLISET DIGITOINNIT\0001_AHLAINEN\JPG\Ahlainen\E\kotus-201214_0001_AHLAINEN_00000326_F.jpg",309,,21.415629228704,61.69625416386
327,Enskerit,kari,"114207 B",5,1,A,,Ahlainen,"Happonen, Raija",1969,E,00000327_F.jpg,,,,,1472,202837.5116809467,6849397.676705376,,KotusNA1,"\\tiedostot.ds.kotus.fi\digiwork2\nadigi\GRANON LOPULLISET DIGITOINNIT\0001_AHLAINEN\JPG\Ahlainen\E\kotus-201214_0001_AHLAINEN_00000327_F.jpg",310,,21.383560125817,61.662321660506
328,Enonmäki,mäki,114211,,16,59,18,Ahlainen,"Miikkulainen, Raija",1986,E,00000328_F.jpg,,,,,1483,216513.2563146023,6856991.734056296,,KotusNA1,"\\tiedostot.ds.kotus.fi\digiwork2\nadigi\GRANON LOPULLISET DIGITOINNIT\0001_AHLAINEN\JPG\Ahlainen\E\kotus-201214_0001_AHLAINEN_00000328_F.jpg",311,,21.628842267017,61.740528962958
330,Ensholma,saari,114208+114205,,04,55,2,Ahlainen,"Miikkulainen, Raija",1986,E,00000330_F.jpg,,,,,1482,204754.712654093,6852601.471203008,,KotusNA1,"\\tiedostot.ds.kotus.fi\digiwork2\nadigi\GRANON LOPULLISET DIGITOINNIT\0001_AHLAINEN\JPG\Ahlainen\E\kotus-201214_0001_AHLAINEN_00000330_F.jpg",312,,21.414407943675,61.692423474166
331,Ensimmäinenala,niitty,114211,,18,58,18,Ahlainen,"Miikkulainen, Raija",1986,E,00000331_F.jpg,,,,,1483,218413.7902879344,6855290.245090909,,KotusNA1,"\\tiedostot.ds.kotus.fi\digiwork2\nadigi\GRANON LOPULLISET DIGITOINNIT\0001_AHLAINEN\JPG\Ahlainen\E\kotus-201214_0001_AHLAINEN_00000331_F.jpg",313,,21.667302815228,61.726722994617
333,Enskeri,saari,114208+114205,,02,54,,Ahlainen,"Miikkulainen, Raija",1986,E,00000333_F.jpg,,,,,1482,202449.2422744712,6851625.003204742,,KotusNA1,"\\tiedostot.ds.kotus.fi\digiwork2\nadigi\GRANON LOPULLISET DIGITOINNIT\0001_AHLAINEN\JPG\Ahlainen\E\kotus-201214_0001_AHLAINEN_00000333_F.jpg",314,,21.372633116564,61.681919628595
334,Enskerinnokka,matalikko,114208+114205,,01,55,2,Ahlainen,"Miikkulainen, Raija",1986,E,00000334_F.jpg,,,,,1482,201688.596123182,6852391.970285867,,KotusNA1,"\\tiedostot.ds.kotus.fi\digiwork2\nadigi\GRANON LOPULLISET DIGITOINNIT\0001_AHLAINEN\JPG\Ahlainen\E\kotus-201214_0001_AHLAINEN_00000334_F.jpg",315,,21.357075414449,61.688181129858
335,Enskerinnokkamatala,matalikko,114208+114205,,01,55,2,Ahlainen,"Miikkulainen, Raija",1986,E,00000335_F.jpg,,,,,1482,201689.3837205456,6852395.120675336,,KotusNA1,"\\tiedostot.ds.kotus.fi\digiwork2\nadigi\GRANON LOPULLISET DIGITOINNIT\0001_AHLAINEN\JPG\Ahlainen\E\kotus-201214_0001_AHLAINEN_00000335_F.jpg",316,,21.357085073193,61.688209885826
336,Erkamaa,tila,114207+114204,,08,47,,Ahlainen,"Miikkulainen, Raija",1974,E,00000336_F.jpg,,,,,1477,208446.8661267978,6844627.838894071,,KotusNA1,"\\tiedostot.ds.kotus.fi\digiwork2\nadigi\GRANON LOPULLISET DIGITOINNIT\0001_AHLAINEN\JPG\Ahlainen\E\kotus-201214_0001_AHLAINEN_00000336_F.jpg",317,,21.496595951702,61.623997452239
337,Erola,tila,,2,1,J,1,Ahlainen,"Peltola, Satu-Liisa",1966,E,00000337_F.jpg,,,,,1467,217416.067798955,6842430.84617592,,KotusNA1,"\\tiedostot.ds.kotus.fi\digiwork2\nadigi\GRANON LOPULLISET DIGITOINNIT\0001_AHLAINEN\JPG\Ahlainen\E\kotus-201214_0001_AHLAINEN_00000337_F.jpg",318,,21.668407221306,61.611051036676
338,Esijako,pelto,114211,,16,52,14,Ahlainen,"Miikkulainen, Raija",1986,E,00000338_F.jpg,,,,,1483,216411.4282688607,6849940.622341357,,KotusNA1,"\\tiedostot.ds.kotus.fi\digiwork2\nadigi\GRANON LOPULLISET DIGITOINNIT\0001_AHLAINEN\JPG\Ahlainen\E\kotus-201214_0001_AHLAINEN_00000338_F.jpg",319,,21.637907305298,61.677433660365
340,Esijaonmäki,mäki,114211,,16,52,13,Ahlainen,"Miikkulainen, Raija",1986,E,00000340_F.jpg,,,,,1483,216336.1139422944,6849725.438550274,,KotusNA1,"\\tiedostot.ds.kotus.fi\digiwork2\nadigi\GRANON LOPULLISET DIGITOINNIT\0001_AHLAINEN\JPG\Ahlainen\E\kotus-201214_0001_AHLAINEN_00000340_F.jpg",320,,21.636825135329,61.675454789008
341,Eskelinluola,onkalo,,,,,,Ahlainen,"Kleemola, Tarja",1969,E,00000341_F.jpg,,,,,0,-1,-1,,KotusNA1,"\\tiedostot.ds.kotus.fi\digiwork2\nadigi\GRANON LOPULLISET DIGITOINNIT\0001_AHLAINEN\JPG\Ahlainen\E\kotus-201214_0001_AHLAINEN_00000341_F.jpg",321,,-1,-1
